location_name,name,restaurant_id,restaurant_address,description,detailed_description,image,lat,lng,rating,reviews,restaurant_type
London,The New Inn,1fbfb3b1-704f-491f-bfcf-ac1170afafb7,London    United Kingdom,,,,51.58225001,0.211982304,,,5 star
London,Bread And Breakfast Cafe,599342a8-42a2-42fb-ac74-b9f593f9f9d4,Londone  United Kingdom,,,,51.59995355,0.221922333,,,6 star
London,A127 McDonalds,377869b3-e39b-413b-8ee2-24a333274d98,London    United Kingdom,,,,51.58929349,0.219931834,,,7 star
London,Ojs,6fbf71a9-ceda-4f95-aed6-ac3b27b1cead,London    United Kingdom,,,,51.56291182,0.216628495,,,8 star
London,The Fatling,99f4c68d-ed14-42a0-b4cb-2309104301e3,109 High Street  Hornchurch  United Kingdom,,,,51.562755,0.218595,,,9 star
London,"Alec's Restaurant, Navestock",7cbfc242-878a-4a32-b2de-317662231231,London    United Kingdom,,,,51.58241425,0.228002515,,,10 star
London,Yates Bar Romford,306d0c62-8388-496c-9f0a-44aa5fab1efd,London    United Kingdom,,,,51.57888023,0.236869732,,,11 star
London,Sorrento Ristorante Italiano,b5265f91-27df-4b4b-bd27-8c5d64566241,13 Station Road  Upminster  RM14 2SJ  United Kingdom,,,,51.5568113,0.24945514,,,12 star
London,Thames Chase Cafe,6e9c3f7d-f7b1-4efb-9fd7-6c9420b1de7d,Thames Chase  The Forest Centre   Upminster  RM14 3NS  United Kingdom,,,,51.55,0.25,,,13 star
London,"Bayleaf, Whetstone",1b9f8a0c-3e8e-413b-a2a8-5c04b08155da,1342 High Road  London  N20 9HJ  United Kingdom,,,,51.63051236,-0.175011351,,,14 star
London,Zefi,0157cabf-1114-43d6-94be-1c3af9d3b4ee,Walton Street London    London  SW3 2HP  UK   United Kingdom,,,,51.4940651,-0.167793658,,,15 star
London,Mantoos Afghan Restaurant,810a8e39-1a9e-4a83-91de-db382cc67b54,59 Battersea Bridge Road  London  SW11 3AU  United Kingdom,,,,51.47823767,-0.169832825,,,16 star
London,Casuarina Tree Restaurant & Bar,00d43df5-be33-49b2-a7f1-8f9787b147f6,407  London Road  Mitcham  CR4 4BG  United Kingdom,,,,51.39811761,-0.172418316,,,17 star
London,Honeydale Farm Shop & Tea Room,47e6c839-c410-4b99-9aac-d02efbeca63d,217 Maidstone Road  Sidcup  DA145AW  United Kingdom,,,,51.41311878,0.137002004,,,18 star
London,"Red Barn Pub, Erith Road, Barnehurst",762322bd-94d1-4e61-8d52-2369642c8cbf,London    United Kingdom,,,,51.46569008,0.161436585,,,19 star
London,West Street Cafe,1242ab17-ecd2-4e96-97e3-1df831245c33,London    United Kingdom,,,,51.4852008,0.173134263,,,20 star
London,The Bell Inn,89fd4087-2f4a-44d4-a358-43aedaee5f37,London    United Kingdom,,,,51.5190814,0.189673818,,,21 star
London,Running Horses,9eaa44db-0ae8-49e4-b6c9-cb8a6b61b490,,,,,51.48195481,0.179704873,,,22 star
London,Potion Bar,aa073ef0-05b3-42ad-ae86-833a05dbb4f7,London    United Kingdom,,,,51.48088946,0.180942512,,,23 star
London,The Essex Cafe,961b9c0a-52da-40d7-b56d-52be2e1d66a3,London    United Kingdom,,,,51.54060888,0.192693882,,,24 star
London,The Flaming Grill,bbbcea42-7b62-45d3-bdcb-107211cf2252,,,,,51.5229526,0.191682729,,,25 star
London,Elm Park Cafe,14e3a35e-d7c4-4262-8e0a-97050b030930,London    United Kingdom,,,,51.5502308,0.19918819,,,26 star
London,Adams Fish Bar,19a6a895-5d13-429a-861c-9891afeabe3a,31 Kingston Road  London  SW19 1JX  United Kingdom,,,,51.41557387,-0.194099914,,,27 star
London,"Dancing Elephant, Wimbledon",35973252-5645-40c9-b8c5-acf6569a1281,Unit 23  55-59 Weir Road  London  SW19 8UG  United Kingdom,,,,51.39013942,-0.194040291,,,28 star
London,The Diner,772e22a7-1ce4-47ca-9fba-e1b3495be74e,London    United Kingdom,,,,51.38375446,-0.190202108,,,29 star
London,The Red Lion Toby Carvery,1fe49b87-3a7b-4b18-903d-3e4221bea2e2,,,,,51.65250194,-0.198831074,,,30 star
London,DURUM OCAKBASI RESTORANT,e0e0b14b-7755-4600-ad3b-e98024eb0769,119 BALLARDS LANE    FINCHLEY  London  N3 1LJ  United Kingdom,,,,51.60461828,-0.188905202,,,31 star
London,HonkyTonk Bar & Restaurant,b877fa86-ef00-4c02-b59d-67a039e6f4c5,16a Clapham Common  London  SW4 7AB  United Kingdom,,,,51.48603152,-0.184280231,,,32 star
London,il trillo Ristorante & Giardino,c341e2d0-eb90-4306-bbe8-2b62aa36b9bd,4 Hollywood Rd  Chelsea  London  SW10 9HY  United Kingdom,,,,51.48601534,-0.184255166,,,33 star
London,Prezzo Wandsworth,ec0ee1d3-bd41-4201-ac75-28e9cd850c38,Southside Shopping Centre  London    United Kingdom,,,,51.47133396,-0.184114783,,,34 star
London,McDonalds - Wandsworth Bridge,196d35ab-c8be-4c1c-b976-957169427fd4,London    United Kingdom,,,,51.46220892,-0.186771342,,,35 star
London,Red Lion Pub and Toby Carvery,15270cbe-dd7d-4c07-b1a2-b7ee5179239a,London    United Kingdom,,,,51.64167018,-0.182511447,,,36 star
London,ASK,9010df28-35d9-453d-915c-cfb53369a31c,1257 High Road  London  N20 0EW  United Kingdom,,,,51.63018583,-0.175194099,,,37 star
London,Chix-Chox Restaurant & Cafe,bced6f0a-8f88-4da1-a63e-4e53fe74daa1,793 High Road  London  N12 8JT  United Kingdom,,,,51.61578431,-0.176751582,,,38 star
London,Tinseltown 24 Hour Diner,b7d6f3e7-7779-492d-a676-9f8944adec51,104 Heath Street  London  NW3 1DR  United Kingdom,,,,51.55878988,-0.178483315,,,39 star
London,Moet & Chandon Champagne Bar @ The Royal Albert Hall,9aca7a9a-b390-43bb-ae44-fa4b12d87958,London    United Kingdom,,,,51.50115803,-0.17691746,,,40 star
London,"The Oxo Tower, Southbank",5912891f-dc7d-4b01-8642-4e61423b8d7c,London    United Kingdom,,,,51.43601212,-0.178482128,,,41 star
London,The Provenance,645d5be8-b29d-4aa7-85e2-d7d2291d0d7a,62 High Street  Colliers Wood  London  SW192BY  United Kingdom,,,,51.42061715,-0.175757158,,,42 star
London,H's Cafe,219294fe-5d44-4cc4-b56a-1474619fd4e6,London    United Kingdom,,,,51.37454209,-0.176873859,,,43 star
London,Brunchies Cafe,aa654d60-756c-42b7-b42e-c471f483af5f,112 westmead road  Sutton  Sm1 4jd  United Kingdom,,,,51.36624562,-0.179428714,,,
London,Flamin Grill Pub Co @ The Five Bells,a445f269-07b6-43e2-9660-7f6d02312298,,,,,51.59072061,-0.172356828,,,
London,Gaucho Grill Hampstead,cf5ebffa-99c8-4140-b5fb-c9fdbe444ada,London    United Kingdom,,,,51.55747594,-0.177929624,,,
London,Hyde Park In London,f8eaec96-49de-4124-9c89-fd2e5132aca4,near 146 praed street w2  w2 1  London    United Kingdom,,,,51.51256928,-0.175235929,,,
London,Prince,6e0417fd-32ef-434f-afaa-aee0b641988f,59 Kynaston Road  London  N16 0EB  United Kingdom,,,,51.55826415,-0.081085609,,,
London,Restaurant RIVER CLUB,952d6a32-c777-417b-b53c-c05b16b68706,113 river road   Barking  IG11 0eg  United Kingdom,,,,51.51685748,0.099886926,,,
London,Plume of Feathers,be1834ab-201e-4e85-abbd-042cd2a869e9,282 Plumstead High St  London  SE18 1JT  United Kingdom,,,,51.48586558,0.099493985,,,
London,"The Royal Oak, Green Street Green",2d3cc6a2-02b2-4720-903a-0e626f65219b,,,,,51.35090208,0.08858622,,,
London,O Grady's Irish Bar,76c9fb42-0e5b-422f-a7a8-70c5a8228a32,699 High Road  Ilford  London    United Kingdom,,,,51.56490074,0.101212208,,,
London,McDonalds,9adad021-dd91-4bd6-904b-4dbf32cfc5ac,700 High Rd  London  IG3 8RS  United Kingdom,,,,51.56518166,0.103793184,,,
London,Cafe Diana,3e1d58fe-7fe6-46a7-b84f-26db21d67d57,London    United Kingdom,,,,51.50699486,0.107554503,,,
London,Food by Sharon,5863b954-0c8e-474a-b75e-eda994a6c438,106 McLeod Road  London  SE2 0BS  United Kingdom,,,,51.48736123,0.110058699,,,
London,Mems Cafe,50d4b303-5b33-423c-8402-12718f5eeacd,London    United Kingdom,,,,51.47882481,0.102213716,,,
London,Westfield Shopping Centre,66e302c8-a349-4a6f-98dc-0b4cf6aa0f4a,Ilford    United Kingdom,,,,51.56641167,0.110305718,,,
London,Bistro on the Green,5f49ea9a-0af5-47a2-a243-86e82e4fcc89,Crowlands Golf Centre  Wood Lane  Dagenham  RM8 1JX  United Kingdom,,,,51.55100736,0.120056908,,,
London,Ben's Cookies,ca1eeece-91eb-420e-929e-779eb3a0417a,35-36 Great Marlborough Street  London  W1F 7JF  United Kingdom,,,,51.51184189,0.126030062,,,
London,"The best place in the world ""my bed""!!!!",0e4bb3d5-391f-4663-9819-a1027f2a9edf,,,,,51.55177464,0.125509291,,,
London,In the Kitchen Cooking Dinner,b8a75131-db9b-4409-a1f8-d925c4f832a7,London    United Kingdom,,,,51.4952165,0.131555802,,,
London,Blue Anchor Pub & Restaurant,8b1531b5-fdf5-4b8b-9bac-26ea0c257d30,London    United Kingdom,,,,51.44542457,0.132530104,,,
London,McDonald's Restaurant,06980bd7-b92f-4443-9d67-0de791ad632a,Whalebone Lane North  London  RM6 6SB  United Kingdom,,,,51.58155619,0.141432852,,,
London,The Becontree Pub,536496db-2c0b-4688-96dc-0df3da06dab0,London    United Kingdom,,,,51.56128646,0.141791451,,,
London,Nando's,144e2fd0-81c6-479d-ac30-052a698a2efc,London    United Kingdom,,,,51.48807769,0.14475257,,,
London,White Cross Inn,733cb259-c54f-47cc-bd1c-6e1fc3b21f78,146 North Cray Rd  London  DA14 5EL  United Kingdom,,,,51.42190048,0.13336263,,,
London,Sungate Cafe,130d93ed-2791-426e-b847-6409f96e71da,London    United Kingdom,,,,51.5954342,0.146528156,,,
London,Dairy Crest Chadwell Heath,241a1eab-7c3f-49e9-8d4b-9da394212591,Selinas Lane Chadwell Heath  London    United Kingdom,,,,51.56675515,0.139532274,,,
London,My house,180cb299-8374-4c0c-b163-c3a0e009e557,109 turnage road  Dagenham  rm8 1qt  United Kingdom,,,,51.56560747,0.14907495,,,
London,Silvaspoon Dagenham,3e65d234-4067-4b79-bea6-0f01efe7a421,161 Broad Street  Dagenham  RM10 9HX  United Kingdom,,,,51.53480387,0.151136778,,,
London,Me 'An' O'Brien's - Dagenham,c29b3721-a3a5-4923-bd2a-f2eec5abbf41,26  Dagenham  RM9 6UR  United Kingdom,,,,51.53198709,0.146925873,,,
London,Flyingfishman,0953fabb-1727-4752-9a85-7c737974d8e7,99 parsonage manorway  Belvedere  da17 6lz  United Kingdom,,,,51.47756029,0.148530342,,,
London,Crazy Barn,6829e00a-42c3-4ceb-b22b-688080aa4788,London    United Kingdom,,,,51.4326316,0.139731158,,,
London,The Brickyard Resturant and Bar,d6f24a02-1654-4df5-89d8-074b48efc45d,,,,,51.59291876,0.159464652,,,
London,Burger King Romford Eastern Ave,e50c1c51-3f0c-4fee-bb58-da8034407998,Eastern Avenue Retail Park  London  RM7 7JJ  United Kingdom,,,,51.58307979,0.167555555,,,
London,ARAGON HOUSE,00723c9f-06ce-4bf8-8439-d68bce362ab7,247-249 new kings road parsons green fulham  London  sw6 4xg  United Kingdom,,,,51.47272472,-0.200279341,,,
London,The Cat's Back Pub | Wandsworth - Putney,562c9f81-f434-4a99-934d-eec43f1530cc,86-88 Point Pleasant  London  SW18 1NN  United Kingdom,,,,51.46183926,-0.199369323,,,
London,Egg Benedict Caffe,2f7315e8-a9ad-474d-af89-5bb411c95d5e,185 Kingston Road  London  SW19 1LH  United Kingdom,,,,51.4146166,-0.201475537,,,
London,Nando's West Hampstead,424228c8-565c-45dc-a8b6-6a709e62343d,London    United Kingdom,,,,51.55129694,-0.191797082,,,
London,Saltanah Shisha Cafe,220711a9-3ac5-48b0-b0e1-162b0761c6f2,London  NW6 5AE  United Kingdom,,,,51.5347192,-0.193911094,,,
London,Kilburn Park Station,67392890-5ba4-4423-82a2-a7bb45e1ea84,Cambridge Avenue  London  NW6 5AD  United Kingdom,,,,51.535076,-0.193570486,,,
London,Piano Bar Kensington High Street,dabfa168-5ae9-4a26-93d7-55ade428729e,106 Kensington High Street  Kensington   Kensington  W8 4SG  United Kingdom,,,,51.50116217,-0.192884853,,,
London,The Greedy Buddha Restaurant & Bar,d13bbe93-21d8-40b5-bb7a-71a043064dba,144 Wandsworth Bridge Road  London  SW6 2UH  United Kingdom,,,,51.47193416,-0.191490862,,,
London,"The Eden Plaza Hotel, Kensington",a7ce1c27-5dca-410f-8dbe-128545582e62, 68-69 Queensgate  Kensington and Chelsea  London  SW7 5JT  London    United Kingdom,,,,51.49518918,-0.179085669,,,
London,"The office, Oldfield Circus, Northolt",9305317a-3ea6-4715-9d75-46632782e0ed,17 Oldfield Circus  Northolt  UB5 4RR  United Kingdom,,,,51.55213275,-0.350531859,,,
London,The Railway Flaming Grill!,fe2f3a24-7d2a-409a-ab98-1f200882d0b1,390 Oldfield Lane North  Greenford    United Kingdom,,,,51.54314234,-0.345251853,,,
London,Spice Villa,e8361390-69c6-42b8-a14b-eb62bacbd55a,12 Westerham Avenue  London    United Kingdom,,,,51.62168148,-0.080858085,,,
London,Vestry Fish Bar,290f3156-e279-491e-9311-edf8ac68c051,35 Vestry Road  London  SE5 8PG  United Kingdom,,,,51.47106566,-0.082214262,,,
London,White Horse Pub,4ba36dce-1afa-4618-9f2a-f2eed0ed8104,London    United Kingdom,,,,51.52808332,0.056451337,,,
London,On the Moon,fb68978a-cfd0-4ef6-9a36-0c4bd646f235,Llanover Road  London    United Kingdom,,,,51.47776353,0.064557838,,,
London,"Denny,s",f5dc90e3-af56-49ff-9de2-1c1dd635daf4,London    United Kingdom,,,,51.40517856,0.058396364,,,
London,Harvester,580fec88-c967-4904-accb-35ab285c9d11,286 Southborough Lane  London  BR2 8AA  United Kingdom,,,,51.3904237,0.053947873,,,
London,Jonos Irish Bar Ilford,83bd540f-7c70-4e17-a640-abd091c94e7d,London    United Kingdom,,,,51.55966893,0.070022641,,,
London,TAJ Grill,ab2045e2-6f40-4f9c-913f-fa30f4ddef81,72 Ilford Lane   Ilford  IG1 2LA  United Kingdom,,,,51.55502797,0.07195443,,,
London,The Lounge Bar Chislehurst,33e0e602-a728-48d3-ae78-2d880cac1ef3,1-3 Whie Horse Hill  Chislehurst  BR7 6DG  United Kingdom,,,,51.42207017,0.061808265,,,
London,The Corner Cafe,c0512d1c-7129-47d2-a00c-2c934017066c,,,,,51.48611944,0.080077473,,,
London,"Shrewsbury House, Shooters Hill",4620c28f-14da-4f11-a46d-fba20b55962b,London  DA16 3RP  United Kingdom,,,,51.47346802,0.072843487,,,
London,Sunday Sessions At The Lounge Bar,b3791569-861b-4d85-9864-20f643fa5f1a,Chislehurst    United Kingdom,,,,51.4,0.0666667,,,
London,Nando's Gallions Reach,20d64fa0-0143-414a-876c-c741f422374e,London    United Kingdom,,,,51.51591579,0.077061284,,,
London,McDonald's Gallions Reach,c5af2e59-af6e-44ea-97a5-0b4e18e1ebaa,London    United Kingdom,,,,51.51594088,0.077501145,,,
London,The best place in the world...my bed..lol x,96035dd7-4879-480e-a2af-77205b79e567,London    United Kingdom,,,,51.48728373,0.082950772,,,
London,The Old Mill,e9fb3707-87c6-466f-b310-329609e7a258,London    United Kingdom,,,,51.48172613,0.083944508,,,
London,Macdonalds Newbury park,331b654c-b7f3-410d-952f-2b6e2323b83d,London    United Kingdom,,,,51.57383057,0.084367295,,,
London,Portvgalia - Cafe Snack Bar & Restaurant,723f0a15-244d-4d83-a1c1-e9d937a1dfc9,398 Ripple Road  Barking  IG11 9RS  United Kingdom,,,,51.53533113,0.094987327,,,
London,"The Green park, Falconwood",dce3520a-c881-41cc-b543-37297cb8c7f5,London    United Kingdom,,,,51.45694509,0.093254633,,,
London,La Cucina,b80ab3c0-54c2-4343-b8bc-9ecc0177963c,160 Halfway Street  London  DA15 8DG  United Kingdom,,,,51.44023924,0.088179813,,,
London,Frogpool Manor Restaurant,dc4994ad-abea-4b82-a29e-09cc4417b0c4,Perry Street  Chislehurst  BR7 6HA  United Kingdom,,,,51.41857655,0.095034971,,,
London,Ember Pub & Dining,a8d1648d-3bd1-4264-be44-4d3fbe84d4df,London    United Kingdom,,,,51.35229421,0.089669975,,,
London,"Rose and Crown, Green St Green",0c25df33-b98d-40cd-81dc-33094d3c1fae,,,,,51.35029698,0.087777372,,,
London,Megan's,774a90fb-8cd6-408c-8cd5-3f88edc1f4a2,Kings Road  London    United Kingdom,,,,51.48728988,-0.169275526,,,
London,No.8,0d6b02df-2fe8-41d7-a581-f2b4a68e5886,72 Wolsey Avenue  London  E6 6AJ  United Kingdom,,,,51.46306938,-0.170163238,,,
London,Cafê© Prazeres,92ac70b2-bb4e-483e-abcc-76772ad09d49,London    United Kingdom,,,,51.36308022,-0.171964426,,,
London,Al Fresco,34c47ec3-55ea-46e3-956a-5442387bb468,1327 High Road  London  N20 9HR  United Kingdom,,,,51.6318115,-0.175682587,,,
London,"The George, Belsize Park",893b0567-794d-4404-aad6-d5e5b3b11c8e,250 Haverstock Hill  London  NW3 2AE  United Kingdom,,,,51.55235984,-0.1673523,,,
London,Odette's Restaurant and Bar,c85942c7-8776-48e9-afe1-400e657fd094,130 Regent's Park Road  London  NW1 8XL  United Kingdom,,,,51.54071061,-0.157446785,,,
London,Alexanders Greek Restaurant,fe7fd924-fdec-4bc1-a2b0-a3f439c31603,81 Russell Lane  London  N20 0BA  United Kingdom,,,,51.63000434,-0.156767342,,,
London,Green Jade Restaurant,65e59f8f-3caa-4e95-a071-7da475eb0770,435-437 Oakleigh Road North  London  N20 0RU  United Kingdom,,,,51.62340027,-0.153616687,,,
London,Delicia,46c6bff8-87c9-4dbf-a7a6-05b1051c8814, 4-5 Cheapside  Fortis Green   London  N2 9Hp  United Kingdom,,,,51.59096246,-0.153711287,,,
London,"McDonalds Head Office, East finchley, London",717b6422-81dc-4bf5-8c66-6efc4d44fdb9,11 - 59  High Road  East Finchley  London  N2 8AW  United Kingdom,,,,51.58794732,-0.164783363,,,
London,X factor,0720fd8a-1308-48d5-850e-2136a3a6d7f8,19  London  25000  United Kingdom,,,,51.55146207,-0.156761177,,,
London,Early Bird Cafe,8b70c29c-c8dc-4229-ab88-0df0334a30aa,2-3 Adelaide Road  Chalk Farm  London  NW3 2BN  United Kingdom,,,,51.54389493,-0.154029577,,,
London,Regent's Park Inner Circle Cafe,f0808aec-303c-473c-a621-a7ef39707e98,Inner Circle  London    United Kingdom,,,,51.5270548,-0.155044352,,,
London,At Home In Battersea,23527143-3dea-4f0c-9ff0-9e699925ae15,London    United Kingdom,,,,51.47365891,-0.152047355,,,
London,Purkins Wine Bar,3699bbe1-5edc-4b6f-8c82-1efd03edf96c,London    United Kingdom,,,,51.41672216,-0.152416463,,,
London,Gino's Restaurant - Mitcham,356ec088-72d0-4c74-bc68-5cb4f2ebfb87,6-8 Upper Green  Mitcham  CR4 2PA  United Kingdom,,,,51.40492011,-0.162990475,,,
London,Hare On The Green II,74405d32-4946-47eb-bf47-fc11a6c3a1d2,19 Manor Road  London  SM6 0BW  United Kingdom,,,,51.36653561,-0.153233831,,,
London,Cockfosters Delicatessen,06cef46f-1da7-4631-8839-a80dc35442b3,Cockfosters Road  London  EN4 0DW  United Kingdom,,,,51.66567801,-0.156256345,,,
London,Cock,642b44ff-a10f-47e2-b4f6-569cea37d6b9,Chalk Lane  London  EN4 9HU  United Kingdom,,,,51.65450585,-0.154375659,,,
London,cock and dragon cockfoster Pub,a5e43425-5283-44eb-83c6-1d471a065084,London  EN4 9HU  United Kingdom,,,,51.65450307,-0.154403894,,,
London,Radisson Blu Edwardian Grafton,f80d1a25-50b5-4df7-8b46-f221999f8a01,130 Tottenham Court Road  London  W1T 5AY  United Kingdom,,,,51.52434659,-0.137827238,,,
London,The Royal Air Force Club,ee4dbadc-a5ec-4942-b302-60dd4d36b1bf,128 Piccadilly  London  W1J 7PY  United Kingdom,,,,51.50403575,-0.148255378,,,
London,Joe's Fish Bar,33c30bfa-5a60-449a-b43d-8d92cebacae8,124 Alexandra Park Road  Muswell Hill  London  N10 2AH  United Kingdom,,,,51.59864698,-0.137208246,,,
London,Green Carnation Bar,8ea7594d-ab3d-4eb2-8938-830e77f2bd62,London    United Kingdom,,,,51.5736957,-0.136797929,,,
London,The Winchester Pub & Hotel,02f57b92-beb5-4839-9975-13187e38ee23,206 Archway Road  London  N6 5BA  United Kingdom,,,,51.57360075,-0.141136116,,,
London,"The Boogaloo, London",285b56b3-4e2a-496f-a428-ffb98c1eb1df,London    United Kingdom,,,,51.5762866,-0.143904275,,,
London,Castle's Traditional Pie & Mash,0f0a995b-292e-4441-9121-d301cd1d774f,229 Royal College Street  London  NW1 9LT  United Kingdom,,,,51.54222915,-0.138705918,,,
London,The London Edition Hotel,464829b4-cad6-4ef1-b8b2-18900a3911d7,Berners Street  London    United Kingdom,,,,51.51674041,-0.136444264,,,
London,"Nando's Regent Street, London",a6d8ec73-bb51-4b54-83a0-625b33ae3d70,46 Glasshouse Street Regent Street  Westminster  London  W1B 5DR  United Kingdom,,,,51.51044648,-0.13798617,,,
London,The Ritz London,6ae40022-9d97-4c75-9047-8d6bff64e4ec,150 Piccadilly  London  W1J 9BR  United Kingdom,,,,51.50725911,-0.141878773,,,
London,The Unicorn Camden Live,e0cfc93e-b46f-4400-be56-8596542198a0,227 Camden Road  London  NW1 9AA  United Kingdom,,,,51.54878742,-0.129327499,,,
London,The Black Bull,c42005c8-72c1-4049-945f-ce293c73846e,London    United Kingdom,,,,51.56272238,-0.403161451,,,
London,Nass Burger Hounslow,f1033300-d6d4-466a-adb5-7524c8d57e03,445 Great West Road  Hounslow    United Kingdom,,,,51.47869689,-0.364291901,,,
London,Cool Breeze West Indian Take Away,5961a290-0448-4b2d-87e9-a7e3b018c4d6,266 Hither Green Lane  London  SE13 6TT  United Kingdom,,,,51.44765185,-0.00055374,,,
London,The Signal Box,b1f5bd13-615d-41a3-a3b2-45938de77691,London    United Kingdom,,,,51.6086956,0.000293944,,,
London,ZAKI SNOOKER/POOL PALACE IN EAST LONDON,8d8f61b9-39ee-4354-bd60-c0b58b9b3594,88-90 Leytonstone road  London  E15 1TQ  United Kingdom,,,,51.54999886,0.005576115,,,
London,RIAL,a4945c90-ee45-4925-be7c-b94f6e9f3576,4A MEMORIAL AVENUE  WEST HAM  London  E15 3BT  United Kingdom,,,,51.52784946,0.005269583,,,
London,Armadillo Restaurant at The O2,ee6a5a72-2834-457f-92c5-12a1ee1d3a5b,Unit 9  The O2  Peninsula Square  London  SE10 0DX  United Kingdom,,,,51.50301339,0.004986616,,,
London,Zizzi's at the O2 Arena,af5a9f03-2e10-45d9-934d-f9c937523dc7,London    United Kingdom,,,,51.50300616,0.004967453,,,
London,Duchess Bar,6f1b2dee-8c04-4be3-8d73-83d9bfa7e3b0,1 WOOLWICH ROAD   Woolwich  SE10 ORA  United Kingdom,,,,51.48591643,0.007277198,,,
London,London Bridge,b917c337-a882-489f-a7ea-6bd224ec170a,London    United Kingdom,,,,51.4450311,0.004394307,,,
London,Macdonalds Downham,065d9797-3dc1-437a-820c-b7b9019234b3,London    United Kingdom,,,,51.42149875,-0.002429782,,,
London,Amurg.Restaurant,3506b612-832e-437a-82cc-7848b5114e52,579 high road leytonstone  London  E11 4PB  United Kingdom,,,,51.56115524,0.008466115,,,
London,Rose's cafe canning town,1fe98ef1-1f29-4b89-b263-1688777813ec,159 barking Road  London  E16 4HQ  United Kingdom,,,,51.51780676,0.01300754,,,
London,Mordens Wine Bar Blackheath,ef40e40b-c3dd-4606-a78f-5d944f39308f,7-9 Montpelier Vale  London  SE3 0TA  United Kingdom,,,,51.46667201,0.008554522,,,
London,McDonald's- Canning Town,c429ab92-d6e9-4a2a-a9ec-1c08576407bf,London    United Kingdom,,,,51.51819102,0.01377754,,,
London,The Abbey Arms,1e57caf3-4559-48ff-a7e0-57d10d597876,384 Barking Road  Plaistow  London  E13 8HL  United Kingdom,,,,51.52233172,0.022520455,,,
London,Kamana Indian Restaurant,41c15807-1898-4d41-a5f9-3b34a27f2cef,350 Baring Road  London  SE12 0DU  United Kingdom,,,,51.43143804,0.021189942,,,
London,Lloyds Bar,3f0cbc8b-9f6f-42b5-9279-5308de9c192d, 23 Westmoreland Place  Bromley  London  BR1 1DS  United Kingdom,,,,51.39961627,0.016791265,,,
London,Hadley House Restaurant,bd402221-2af6-42e7-86e9-0e6da3721de4,27 High Street Wanstead  London  E11 2AA  United Kingdom,,,,51.57951276,0.024423983,,,
London,Kebabish K.O The Grill,688d41a7-dcd8-42f4-8fd1-1b9e41beb05c,,,,,51.54326236,0.032424604,,,
London,Charlton cafe,ead333df-4416-4702-9509-99bc77f6aaf9,219 charlton road  London  se7 7el  United Kingdom,,,,51.47963153,0.031265197,,,
London,Seasons Restaurant & Bar Woodford Green,dade8f17-b088-44fe-875b-507150e2982c,24 The Broadway  Woodford Green  ig8 0hq  United Kingdom,,,,51.60813768,0.033521662,,,
London,At Home in the Kitchen,bbe8502e-ddae-4435-af52-a0cb5c3916fc,,,,,51.59891016,0.040356326,,,
London,Pink garlic indian restaurant,d5f72be8-6800-4427-a3c5-df831e8c8d58,32 Chatterton road   Bromley  Br29qn  United Kingdom,,,,51.39243505,0.035319446,,,
London,"The Kings Arms, Leaves Green, Keston, Kent",96d987d7-0074-43c0-a342-760fb13c82d1,London    United Kingdom,,,,51.33532327,0.029831144,,,
London,Waziri Darbar Resturant,22de6d4a-9d4e-4ee8-9bba-55be1c10485f,82 Katherine Road eastham  London  e6 1en  United Kingdom,,,,51.53454141,0.047062003,,,
London,YAZ'S DINER,70b6508d-3aa9-4469-a470-df24e997043f,17 Chapel Road  Ilford  IG1 2AF  United Kingdom,,,,51.56964212,0.052789818,,,
London,Tollgate Tavern,b5b04f07-7325-45ae-beec-c4dfdb1a28f7,London    United Kingdom,,,,51.51431661,0.05722835,,,
London,"Slug And Lettuce, South Woodford",2b95816a-0ead-4ada-82de-c17091799825,184 George Lane  London  E18 1AY  United Kingdom,,,,51.59072865,0.055815964,,,
London,YAAL Restaurant,65914587-feb4-4b66-b679-8d04d39a39a2,404 Barking Road  London  E6 2SA  United Kingdom,,,,51.53383877,0.06109005,,,
London,"The Red Lion, Shooters Hill",ba0b46cf-99f5-451c-9050-265a436224bd,6 red lion place  London  SE18 3RN  United Kingdom,,,,51.47053616,0.060177919,,,
London,Cristinas restaurant romanesc,3683b6dc-8098-445c-88b1-66689f7c2528,8-10 NORTH STREET  Barking  IG11 8AW  United Kingdom,,,,51.5366172,0.076652171,,,
London,Bm Lebanese Cuisine,4bac64d5-ecd5-48d0-ab25-284159bc1e7b,1-3 Joel Street  Town Centre  Northwood  United Kingdom,,,,51.602031,-0.409185,,,
London,Oriental Star,e353cbcd-a701-45b5-a4c0-afc1ae9ecf85,134 Finchley Road  London  United Kingdom,,,,51.547916,-0.180249,,,
London,Costa Coffee,22effc56-cbed-4cd9-9d75-ecb85cc92254,4 Great Portland Street  London  United Kingdom,,,,51.515905,-0.140742,,,
London,Greggs Plc,5ed2c904-7263-43e8-8190-2df3db689233,The Arena  Town Centre  Uxbridge  United Kingdom,,,,51.512278,-0.444718,,,
London,Tim's Palace,302f4a98-bb04-44b4-8938-566a24f4e809,222 High Street  Sutton  United Kingdom,,,,51.366643,-0.194351,,,
London,Nando's,44818fab-125f-4e35-9fa2-cb59311e8da5,Bugsby's Way  London  United Kingdom,,,,51.490162,0.012918,,,
London,Belmont Bay,5aa4ecae-640b-4e29-9320-2833e373bbe1,500 Kenton Lane  Harrow  United Kingdom,,,,51.601206,-0.318914,,,
London,The Fountain,a7dc77e1-7833-4568-8273-396519ec8e70,Staines Road  Twickenham  United Kingdom,,,,51.439175,-0.360306,,,
London,Chicken Klub,5571ef3b-bb2d-4e71-acef-3fad5f05a69c,550 London Road  Hounslow  Isleworth  United Kingdom,,,,51.474372,-0.344211,,,
London,Crystal Charcoal,e1e2de4f-9fc6-49ad-b39e-8fbadd30d234,3 Central Parade  London  United Kingdom,,,,51.50346,-0.27999,,,
London,Subway,23f19379-4a72-44c3-9728-45ef2fd9c215,136 North End  Croydon  United Kingdom,,,,51.377835,-0.102373,,,
London,Cafe Tresor,574004ea-0105-41a4-982c-4f192853391b,12 Selsdon Rd  London  United Kingdom,,,,51.363243,-0.097627,,,
London,Yum Yum,a28257ff-b59c-4e04-814e-c36d63455224,312 Ladbroke Grove  London  United Kingdom,,,,51.524184,-0.213753,,,
London,Chaplins,4761dbff-8920-47c3-b814-e83883b41c2c,15 High Road  Ickenham  United Kingdom,,,,51.56286,-0.444097,,,
London,KFC,8120c876-8f0a-47c0-8fbd-c3bb6495b004,107-109 Broadway  London  United Kingdom,,,,51.509674,-0.32661,,,
London,Neuhaus Chocolate Cafe,5884d98e-c6d3-4fee-8cf0-4c29aa1faefd,The Exchange Shopping Centre  High Street  Putney  London  SW15 1TW  United Kingdom,,,,51.463848,-0.21627,,,
London,Madisons Express,8f9f9837-f4f0-40c0-b630-7e7876ad2ad6,2D Lewisham Way  London  United Kingdom,,,,51.47543,-0.036528,,,
London,Shahi Khana,931e4c3f-a8fa-4f24-88e9-89fcb4acf92c,24 Coombe Road  New Malden  United Kingdom,,,,51.404447,-0.256912,,,
London,New Kwan Wah,e478456b-6c0c-4ffa-9e17-0561f6ab37b0,153 Manchester Road  London  United Kingdom,,,,51.489125,-0.006897,,,
London,Papa John''s,4f280df7-305c-42e2-96fa-b2179d68d848,331 London Road  Isleworth  United Kingdom,,,,51.477153,-0.327846,,,
London,The Beach Hut,e766ee03-efa4-4de4-9661-892598a7b2fa,28A Highbury Park  London  United Kingdom,,,,51.55411,-0.098038,,,
London,Blue Moon,215f7423-9bd6-49c9-b732-fa9e4603aa1e,134 Fortess Road  London  United Kingdom,,,,51.555993,-0.138864,,,
London,The Maid Of Muswell,fe58cef4-6392-440c-ad6e-54e63e297a66,121 Alexandra Park Road  London  United Kingdom,,,,51.598816,-0.137891,,,
London,Cafe Florya,5409fb6e-2ece-4cd6-b965-292fbd44cd52,252 Church Lane  London  United Kingdom,,,,51.574282,-0.261963,,,
London,Checkers,ab2e4c7a-0b2c-4409-89b4-aa6f326599d2,128 Central Road  Town Centre  Worcester Park  United Kingdom,,,,51.379046,-0.242352,,,
London,Caffe Nero,c39afdc4-93c4-4c09-835d-2533b63481b4,53 Marsham Street  London  United Kingdom,,,,51.495646,-0.128926,,,
London,Subway Enfield,95ec5b01-7750-4fb2-a424-3cb6a9670b98,42 Church Street  Enfield Town  Enfield  United Kingdom,,,,51.652162,-0.084631,,,
London,Sea Pebbles,4b8996c9-3d57-4e0c-88fd-ae49650c4a85,352 Uxbridge Road  Pinner  United Kingdom,,,,51.607612,-0.374964,,,
London,Pret A Manger,d27fda80-679a-4e09-a71a-507dbacf8c6e,7 Marylebone High Street  London  United Kingdom,,,,51.518803,-0.151509,,,
London,Bella Pizza,e5fc8206-2ec9-439e-990f-3f81bdb4bfb3,161 Church Ln  London  United Kingdom,,,,51.57303,-0.262544,,,
London,Cheltenham Cafe,2eb82655-95aa-4323-84d1-6f895e4d8bd1,124 Cheltenham Road  London  United Kingdom,,,,51.456213,-0.050598,,,
London,The Tea Cup,dd45afe2-3571-4c38-9b81-e9d38a7f4586,12 Brewers Lane  Town Centre  Richmond Upon Thames  United Kingdom,,,,51.460873,-0.305238,,,
London,Picnic Kebab House,bfd04fa9-7190-4c4c-b94e-f0c09fc9cbe2,366 Green Lanes  London  United Kingdom,,,,51.620727,-0.106102,,,
London,Hippie Chippy,f9ec77d7-dc70-4b59-8953-1c6e03be4a5a,4 Station Road  Dartford  United Kingdom,,,,51.450053,0.181778,,,
London,KFC,99935c99-f613-4134-8e45-164d38eb92ac,158 Catford Broadway  City of London  United Kingdom,,,,51.445796,-0.01988,,,
London,Plenty,e039a757-9d41-476a-880e-af084edaa5ea,135 Station Road  Hampton  United Kingdom,,,,51.415815,-0.371714,,,
London,Upsy Daisy Bakery,28f22763-6bf9-4cc9-b384-c3a79976e9fc,387 King Street  Stamford Brook  London  United Kingdom,,,,51.493361,-0.243844,,,
London,Morley's,d500315a-d141-45fe-9583-d95aa4359d59,9 Burnt Ash Hill  London  United Kingdom,,,,51.449267,0.01302,,,
London,Al-Amin,6936eae5-dc53-4d73-883d-fe9c74f747ea,11 Cambridge Rd  Kingston upon Thames  United Kingdom,,,,51.410006,-0.290052,,,
London,KFC,07d9da1e-8cd6-4d10-b997-59277b1d41d6,217 Lewisham High Street  London  United Kingdom,,,,51.458779,-0.012317,,,
London,Pizza At The Palace,579b47d0-8ed7-4a57-b7f7-21e8fea36a30,70 Westow Hill  London  United Kingdom,,,,51.419627,-0.079611,,,
London,Laguna Tandoori,666dee37-0af2-46c1-a244-e84ab300e146,123 Uxbridge Road  London  United Kingdom,,,,51.511593,-0.314437,,,
London,All Bar One Chiswick,d53313da-7cb2-4721-b3ff-a200db0cd065,197-199 Chiswick High Road  London  United Kingdom,,,,51.492345,-0.257508,,,
London,Lee Fish Bar,1a938125-c362-447d-af1c-679898f6029d,113 Burnt Ash Road  London  United Kingdom,,,,51.451082,0.01257,,,
London,Pret A Manger,09df649a-e6b0-423d-a388-149ab4489571,Unit 2033  Level 50  Mall South  Westfield Shopping Centre  London  United Kingdom,,,,51.507213,-0.221292,,,
London,Subway Orpington,747a035a-0b1b-4c66-a32d-49e4d2812e0b,The Walnuts Shopping Centre  Orpington  United Kingdom,,,,51.376443,0.100975,,,
London,Kish Persian Restaurant,2f536448-c3a8-4a30-997e-0ba47d9ec5ba,7-9 Kilburn High Road  London  United Kingdom,,,,51.535393,-0.190189,,,
London,Joe's,44453002-0fa3-416d-8911-17f9f1f4cd1f,126 Draycott Avenue  London  United Kingdom,,,,51.493721,-0.168505,,,
London,Finchley Charcoal Grill,31abe360-418c-46b7-b866-fd9636020323,680 High Road  London  United Kingdom,,,,51.6128,-0.175666,,,
London,Chennai Dosa,6ae61bdc-7485-468e-85fd-f3c0baffc514,33 Upper Tooting Road  Tooting  United Kingdom,,,,51.434862,-0.161102,,,
London,Costa Coffee,099b619f-3da2-4c73-b88d-27f303afe93a,The Mall Exchange Shopping Centre  Ilford IG1 1RS  United Kingdom,,,,51.559231,0.072621,,,
London,Subway,6e2c47b0-0bbb-4454-8ab2-29c24e8b2de5,87 Station Road  Edgware  United Kingdom,,,,51.613346,-0.276646,,,
London,Khin Lee Chinese Restaurant,3f004e1f-3ced-49b8-8f99-c2e2171fd425,345 Green Lanes  London  United Kingdom,,,,51.619614,-0.106808,,,
London,Papa John''s,0226bb7b-4f3d-49b4-abe5-fc6a8b090a45,413 Durnsford Road  London  United Kingdom,,,,51.4396,-0.196959,,,
London,Hanwell Pizza,61f00c72-8b01-4e55-b7b0-739f19549cc2,176B Uxbridge Road  London  United Kingdom,,,,51.508304,-0.340756,,,
London,Xian,a3d04b2e-affe-4a46-8c76-3414c4f548b3,324 High Street  Orpington  United Kingdom,,,,51.373955,0.097806,,,
London,Trinidad Roti Shop,869bf2a9-d731-4876-b591-cd98fc5d169f,27 Craven Park Road  London  United Kingdom,,,,51.538118,-0.249739,,,
London,Montys,08e81229-e7d4-4e6e-803c-ea3981c84d4d,1 The Mall  Ealing Broadway  London  W5 2PJ  United Kingdom,,,,51.514141,-0.301159,,,
London,Gourmandise,176290f7-0f98-43e8-a16e-ffb38fb1e85f,6 Royal Parade  London  United Kingdom,,,,51.529499,-0.293205,,,
London,Apollo Banana Leaf,689ec193-db98-4478-98c4-8db4bf1aadde,190 Tooting High Street  London  United Kingdom,,,,51.424094,-0.172152,,,
London,Pizza Express,a5c83022-9198-4642-a6e3-182d4bd18b69,144 Upper Richmond Road  London  United Kingdom,,,,51.460064,-0.21319,,,
London,Tasty Garden,ef48ba83-560a-44de-8467-832899ae3045,316 Preston Road  Wembley  Harrow  United Kingdom,,,,51.57445,-0.293066,,,
London,cappadocia,143b66e5-6738-45cc-9f28-7e9c678ac92f,1154 London Rd  London  Norbury  United Kingdom,,,,51.40311,-0.11896,,,
London,Pico Bar & Grill,0883d906-b101-4dae-859d-dfa6e8ce0989,74 Albert Embankment  London  United Kingdom,,,,51.487728,-0.122577,,,
London,Frankie & Bennys,9215055d-9b48-4635-b529-92b1d6c3fd6c,The Mast Leisure Park  Surrey Quays road  London  United Kingdom,,,,51.495244,-0.044988,,,
London,Exotica Pizza & Bites,75983cc8-3f37-4182-845d-f7320b2cfdf0,259 Oldfield La North  Greenford  United Kingdom,,,,51.54208,-0.346516,,,
London,Hendon Park Cafe,f43693b0-04d0-45bb-a01d-3bdaaa6d66b3,Hendon Park  Queen's Road  London  Hendon  United Kingdom,,,,51.582891,-0.224283,,,
London,Mumbai 2 Go,4ced14af-f09b-48a8-b0e6-9384ce6752d2,190 South Ealing Road  London  United Kingdom,,,,51.497157,-0.305749,,,
London,Subway,d1def88b-e289-47d7-8072-92bb63163817,33 High St  Harrow  Wealdstone  United Kingdom,,,,51.594368,-0.335341,,,
London,Chicken Cottage,20944635-f755-4201-a350-c9902a7f1887,229-231 London Road  Croydon  United Kingdom,,,,51.383391,-0.108037,,,
London,Spice of Raj,e5a3e8ac-f26b-4074-aef7-2f5ec3f0c594,26 Christchurch Rd  London  United Kingdom,,,,51.417686,-0.177899,,,
London,KFC,0efc1186-ccb1-4633-894c-2404a6bc84b8,High Street  London  United Kingdom,,,,51.414846,-0.052672,,,
London,KFC,080ce586-85bf-475f-93ee-301df1abffc3,231 London Road  Mitcham  United Kingdom,,,,51.405154,-0.164167,,,
London,Ma Battleys,7860123c-ea61-437f-bd28-485bec77d9ba,50 Church Street  Enfield  United Kingdom,,,,51.652198,-0.085172,,,
London,Subway,f0e3c02a-9e13-4cb1-a10e-d705c5352c72,111 High Street  New Malden  United Kingdom,,,,51.400292,-0.255861,,,
London,Laveli Bakery,32311c90-6ce8-4c77-b159-11b786941bcd,5 Churchfield Road  London  United Kingdom,,,,51.508792,-0.263372,,,
London,Il Villaggio,bb0d1d19-a64d-42e5-a716-4c4104347810,8 Blagdon Road  Town Centre  New Malden  United Kingdom,,,,51.400432,-0.254801,,,
London,Boomshakes,293018c3-170b-4417-9c6f-eaca063ffb96,38 Queensbury Station Parade  Edgware  United Kingdom,,,,51.594854,-0.284606,,,
London,Rams,721bd2fb-9969-4e86-a37f-8885d58992c6,201-203 Kenton Road  Harrow  United Kingdom,,,,51.583206,-0.31472,,,
London,Sam's Chicken,668013b0-8ec1-4271-9aa6-e951cfac679e,84-86 High Street  Brent Park  London  United Kingdom,,,,51.535899,-0.246064,,,
London,The Cadogan Arms,5a4affcc-ac5f-4eb9-9599-206e8d63f34e,298 King's Road  London  United Kingdom,,,,51.48599,-0.172858,,,
London,Peking Tasty,9f2a8bbd-cbbf-4a7d-8781-56d39b9fa7e3,9 Selsdon Road  South Croydon  Croydon  United Kingdom,,,,51.363345,-0.097389,,,
London,North China Restaurant,0551d02d-faca-4323-bf19-60837cd1e8fd,305 Uxbridge Road  Acton  London  United Kingdom,,,,51.508304,-0.277405,,,
London,KFC,354f8df7-04f4-49f4-8992-e01f8f124df9,15 Brighton Road  Town Centre  Surbiton  United Kingdom,,,,51.391203,-0.309373,,,
London,Pizza Express,c869fbff-aaf0-4aec-9e49-5d00c7000040,The Rotunda  Kingston upon Thames  United Kingdom,,,,51.412062,-0.300217,,,
London,Mooca Cafe,e44e5810-4bdc-45fc-94ef-f7200cbb351f,127 Church Road  London  United Kingdom,,,,51.475237,-0.240115,,,
London,Greggs,c04f4c80-c321-4ab7-9bf4-81ab4492cb58,100 Lancaster Road  Enfield  United Kingdom,,,,51.663881,-0.0815,,,
London,Pizza Express Restaurants,225d0a5b-b7d6-4ecb-a9b6-85de7b0e05c5,33-35 High Street  Pinner  United Kingdom,,,,51.594432,-0.380373,,,
London,The Fox Under The Hill,8d10f984-8b25-4ae3-b6ca-8f701f34b340,Shooters Hill Road  Shooters hill  London  United Kingdom,,,,51.473904,0.039691,,,
London,Cafe Nomad,aecf6c4f-dc32-47c8-8cb7-966a0adf2551,1389 London Road  London  United Kingdom,,,,51.408455,-0.122076,,,
London,Prezzo,711f4aee-fc56-495c-8d24-b61c30485d15,67-69 The Broadway  Town Centre  Stanmore  United Kingdom,,,,51.617836,-0.308454,,,
London,Lighthouse Fish Bar,2fdca6e6-2d14-4d85-93ae-b755257fea7b,8 Tooting Bec Road  Tooting  London  United Kingdom,,,,51.435325,-0.158728,,,
London,Chicken Cottage,b6298b6e-d5e1-48fa-993b-81fcbad9588d,153 Greenford Road  Harrow  United Kingdom,,,,51.557694,-0.335607,,,
London,La Mook Ltd,3fe6ed13-9cc2-4dad-80a1-dd92da2d03b5,7  New Providence Wharf  Fairmont Avenue  London  United Kingdom,,,,51.506142,-0.005427,,,
London,KFC,14a87a90-f4c7-4f8e-b0f5-e783ef6fc075,65-67 Mitcham Road  United Kingdom,,,,51.426784,-0.166224,,,
London,Organo,31f0ba79-f95c-40af-9940-c8023678aa76,35 Broadway  London  United Kingdom,,,,51.510274,-0.323163,,,
London,The London Particular,a60e005a-8520-475e-bf07-8a1d479420a5,399 New Cross Road  London  United Kingdom,,,,51.475942,-0.033527,,,
London,George's Fish Bar,4fc6c081-c2ad-4726-b777-234da883dad7,8  Savoy Parade  Southbury Road  Enfield  United Kingdom,,,,51.65221,-0.076174,,,
London,Golden Canton,555099fc-e479-44ee-9276-9cc3950409bd,218 Railton Road  London  United Kingdom,,,,51.452958,-0.102491,,,
London,Sun Kong,eeb13b52-fb4b-4ba9-84e7-330d4b9b6696,55 Camberwell New Road  London  United Kingdom,,,,51.480543,-0.108637,,,
London,Pitshanger Village Bakery,272b40e3-e874-4bcd-b5ef-f23f4c9ea223,117 Pitshanger Lane  London  United Kingdom,,,,51.525805,-0.314721,,,
London,The Chef's Kitchen,3320e3c2-b7c2-4eca-9b9a-e7286a9be3a6,78 Chase Side  Enfield Town  Enfield  United Kingdom,,,,51.659059,-0.088,,,
London,Delicious Cafe,c1ea5db1-0091-41e2-a0a6-e9fca7c51f81,328 Norwood Road  Norwood  London  United Kingdom,,,,51.435181,-0.104145,,,
London,Homa,5a2deb39-e13d-4246-912e-4c77c14c8063,71-73 Stoke Newington Church Street  London  United Kingdom,,,,51.562125,-0.077261,,,
London,The Tiffin Tin,0fbdb0aa-f428-4673-b0cf-79ffb6d43063,83 Mill Lane  London  United Kingdom,,,,51.552098,-0.195647,,,
London,Platters,ad3f2a9d-9066-44a0-92b4-34b670d31ede,Finchley Road  London  United Kingdom,,,,51.585385,-0.20006,,,
London,Pret A Manger,b0a2474e-125c-407e-8e2b-cc51708ffcce,Brent Cross Shopping Centre  London  United Kingdom,,,,51.577019,-0.22413,,,
London,No 67,01d07260-7126-4226-840a-f519670e635b,67 Peckham Road  London  United Kingdom,,,,51.474126,-0.079677,,,
London,Classic Wok,a0109a1d-fe40-4071-a019-c1c667baef5c,3 The Green  London  United Kingdom,,,,51.511014,-0.30518,,,
London,Whole Meal,a77b4702-7438-4a4f-b6d6-db9f3699f038,1 Shrubbery Road  London  United Kingdom,,,,51.430433,-0.129331,,,
London,Zeera Spice,a17d055b-d5ff-495f-93e9-49b780284156,12 Addington Road  West Wickham  United Kingdom,,,,51.374069,0.001639,,,
London,Caffe Bernardo,6f24ed1c-149b-40cf-a2aa-6192d5051799,42 Richmond Road  Town Centre  Kingston upon Thames  United Kingdom,,,,51.414061,-0.300561,,,
London,Tao Peking,08948e9e-4930-404f-8295-60ba3687f92a,158-160 High Street  Town Centre  Ruislip  United Kingdom,,,,51.572795,-0.423024,,,
London,Peking Palace,a9db5747-3e26-4add-8781-d711ec764848,10 Glebe Avenue  Uxbridge  United Kingdom,,,,51.562838,-0.443666,,,
London,New Devi Tandoori,6e5cfe5f-1aa6-402d-a17c-5e1769cea99f,10 Kingston Hill  Kingston upon Thames  United Kingdom,,,,51.41411,-0.287002,,,
London,Red Mantra,db59339b-1f6f-4b0e-aaa2-7a639cb6941d,103-105 George Lane  London  United Kingdom,,,,51.592435,0.027119,,,
London,Lale Restaurant,909c6fce-d1f5-4e9a-8221-959a6cd13416,66 Eltham High Street  London  United Kingdom,,,,51.450805,0.051474,,,
London,Tasty House,b196260e-0119-4ab5-8c7e-63b5f0b2adba,118 Denmark Hill  London  United Kingdom,,,,51.470448,-0.093072,,,
London,Coffee Break,00051709-e317-4ad9-ac47-481787717091,7A High Street  Town Centre  Uxbridge  United Kingdom,,,,51.545415,-0.478416,,,
London,Costa Coffee,2730a5c1-84d9-4609-91ba-b0e2a305d9ef,28 The Mall  Broadway Shopping Centre  London  United Kingdom,,,,51.455833,0.145872,,,
London,La Bota,bdf4e6f9-8533-40ac-b70b-79653b5a1c03,31 Broadway Parade  London  United Kingdom,,,,51.581373,-0.121418,,,
London,Thalassa,cfb62a32-12b1-4545-a878-951b26c6ebad,110-112 Chase Side  London  United Kingdom,,,,51.633522,-0.131705,,,
London,Garden and Grill,e0432fb2-5793-4104-b809-afdbc7356bf1,253A Portobello Road  London  United Kingdom,,,,51.517601,-0.206504,,,
London,The Dulwich Bakery,26fa74d8-2399-4dee-be3d-3ab75c625654,78 Park Hall Rd  Dulwich  United Kingdom,,,,51.436068,-0.09016,,,
London,KFC,b39974dd-23f4-4f6e-8f17-6de75eeeb516,56 Market Service Road  Sutton  United Kingdom,,,,51.383173,-0.190404,,,
London,Shampan 3,bf54681f-5359-4b7c-bf08-34bdfdfe65f2,8 Falconwood Parade  Welling  United Kingdom,,,,51.456577,0.094498,,,
London,Hyderabadi Spice,42dff410-b443-4a67-a6b1-72584aecf78b,309 High Street North  London  United Kingdom,,,,51.542895,0.049843,,,
London,Top Cafe,69d7301e-dd70-49b6-bb90-31ee96a5a5c9,8 Godstone Road  Kenley  United Kingdom,,,,51.329429,-0.107986,,,
London,Agile Rabbit,717d0068-1cec-417f-85ea-2c2e4fc93725,Unit 24  Brixton Village Market  Coldharbour Lane  London  United Kingdom,,,,51.46261,-0.112368,,,
London,Johnny Walls,899e735a-d8e8-453e-b8f2-467362ddfdf1,82 Ben Jonson Road  London  United Kingdom,,,,51.517907,-0.038918,,,
London,El Desperado,c70d11c2-16d1-4e3b-8243-99e0dd0bca45,501 London Road  North Cheam  Surrey  Surrey  United Kingdom,,,,51.37128,-0.227879,,,
London,Stour Space,f440be95-37c9-4d82-aa56-6af5db627518,7 Roach Road  Tower Hamlets  United Kingdom,,,,51.540057,-0.021051,,,
London,Happy Inn,c8e773d1-50e3-4d3c-a510-4ab9d0a04d63,131 New Cross Road  London  United Kingdom,,,,51.475949,-0.047518,,,
London,Rose Kebab,223c9d6d-03bc-4a26-8c07-6b2734fc3192,375A Archway Road  London  United Kingdom,,,,51.578102,-0.148408,,,
London,Double Bubble,63c28cc8-deeb-4a5c-8279-01b113de488d,408 Garratt Lane  London  United Kingdom,,,,51.440502,-0.187023,,,
London,Tolli Coffee,96054ec2-0308-4c19-854e-7bee2fce2970,327 Kentish Town Road  London  United Kingdom,,,,51.550178,-0.140909,,,
London,Itsu,08c44552-cb9b-4519-a05f-e69b8528836b,163 Victoria Street  London  United Kingdom,,,,51.496674,-0.140823,,,
London,Ali's Memories Of India,9c03978c-f43f-4a69-bdaa-2c77f37039f9,Buckingham House East Buckingham Parade  The Broadway  Stanmore  United Kingdom,,,,51.618241,-0.311745,,,
London,Oriental Express,1aacf30b-5e60-457e-9321-e6e74523e097,3 The Vale  London  Acton  London  United Kingdom,,,,51.506656,-0.246697,,,
London,Cookies & Cream,bc6d13d3-8c4d-4c90-b8db-26216aaffd79,5 Mile End Rd  London  United Kingdom,,,,51.520426,-0.05519,,,
London,Costas,bbe9634b-157f-4115-a65d-8f55c1144f7e,2C Tooting Bec Rd  London  United Kingdom,,,,51.435404,-0.159194,,,
London,Cafe Zone,0b14a0d1-3ce2-47d8-bef9-67bc9492fbb0,48 Whalebone Lane South  Dagenham  United Kingdom,,,,51.563466,0.146636,,,
London,Little Woodford,853cbdf2-09d3-4355-88b3-873065b8b8a3,118 George Lane  London  United Kingdom,,,,51.592659,0.026109,,,
London,La Vita,2be77df8-07ae-4c77-8b16-a0a782f63a1f,50 Cannon Hill  London  United Kingdom,,,,51.624425,-0.123296,,,
London,Golden Dish,1fe08ecd-6264-4ca7-9c1f-86427dbcd25d,113 High Road  London  United Kingdom,,,,51.546927,-0.230033,,,
London,Il Gelato,ee4984a5-643d-4c7f-b2d4-a963ad4a2f14,52 Broad Street  Town Centre  Teddington  United Kingdom,,,,51.425926,-0.336911,,,
London,Oliver's Fish & Chips,d3b27b24-a75a-43c9-ae5b-b34b0591be52,95 Haverstock Hill  London  United Kingdom,,,,51.546796,-0.158736,,,
London,Kebabish,ebae24f1-b1e7-435b-a9d5-9f46ec0d6dd0,40 Ealing Road  Wembley  United Kingdom,,,,51.550764,-0.298669,,,
London,Bexley's Cyprus Village Restaurant,9b43dadd-6381-47b6-9989-d3f7073c70f4,222 Broadway  Bexleyheath  United Kingdom,,,,51.457668,0.13838,,,
London,Kew Fish Bar,08ab940c-c727-47cd-b34f-158b6309d1f8,114 North Road  Town Centre  Richmond Upon Thames  United Kingdom,,,,51.476569,-0.28476,,,
London,Mantra,db053e29-4d1e-44a9-8004-7d32b66dd0ec,253 Bath Road  Hounslow  London  United Kingdom,,,,51.47097,-0.380185,,,
London,Nico's Cafe-Diner,687a8425-e084-49b3-a6a1-776f95f7b43c,299 Cambridge Heath Road  London  United Kingdom,,,,51.527238,-0.055381,,,
London,Garlands,4e711f6d-0a15-405e-b1dd-a49334a7eb33,27 High Street  Town Centre  Ruislip  United Kingdom,,,,51.576319,-0.426465,,,
London,Bridge The Gap,43c62b54-5122-445a-8b11-23f3d1204ffb,171F Battersea Park Road  London  United Kingdom,,,,51.476646,-0.147466,,,
London,Pizza Express Restaurants,59af1e07-cfed-42a4-b5e7-738137a8de0e,242-248 High St  Barnet  United Kingdom,,,,51.658095,-0.200912,,,
London,Silver Dollar,d35261c8-e812-419b-bf1e-a2cc0ce46ac1,232 Imperial Drive  Harrow  United Kingdom,,,,51.576211,-0.370079,,,
London,KFC,44ddf67a-6142-429d-a60e-c2786644d996,171 Uxbridge Road  London  United Kingdom,,,,51.506367,-0.237377,,,
London,Tommy's Tuc Inn Cafe,2844460f-98c1-4684-accd-be5c38044620,422 Forest Road  London  United Kingdom,,,,51.590593,-0.021741,,,
London,Sunrise Cafe,34d4a992-9431-4939-bbdf-222647e4591c,3 Bell Parade Bell Road  Hounslow  London  United Kingdom,,,,51.466438,-0.365086,,,
London,Polo 24 Hour Bar,2539f0af-c918-406d-8b5e-2b8e130bea2c,176 Bishopsgate  The City  United Kingdom,,,,51.517612,-0.080203,,,
London,Sorrento,c610cff8-a35e-4b5c-ba6b-6ee3a9025e8c,376 Norwood Road  London  United Kingdom,,,,51.433827,-0.10385,,,
London,Benugo Bar and Kitchen,682bba04-eee7-45f2-9161-a39922da3903,BFI Southbank  Belvedere Road  South Bank  London  United Kingdom,,,,51.506732,-0.114959,,,
London,Guang Ming,81122afb-7355-4f47-8a79-d6f1e1814b2f,158 Lower Road  Surrey Quays  London  United Kingdom,,,,51.492845,-0.046784,,,
London,Starbucks Coffee,bb175f61-66d3-4ffd-99fa-ea023f9968aa,Unit 7  The Brunswick Centre  London  United Kingdom,,,,51.523905,-0.123342,,,
London,Capital Noodle Bar,c6bbe375-afd5-4571-af8f-bc2771093a72,42-44 Plumstead Common Road  London  United Kingdom,,,,51.482044,0.070367,,,
London,Planet Pizza,610c5ce6-6ed5-4c92-83c9-8ba16d8b24af,12 Russell Hill Road  Town Centre  Purley  United Kingdom,,,,51.339281,-0.117095,,,
London,The Hilltop,7732f3ab-4d9e-4705-b006-d969ed6a7527,8 Sydenham Road  London  United Kingdom,,,,51.426434,-0.054369,,,
London,Coffee Day,a7cc5401-2eee-4ca0-94cf-274c2134b20d,9 York Street  Town Centre  Twickenham  United Kingdom,,,,51.447169,-0.327884,,,
London,Savoy Cafe,6db3bf21-2c4c-46eb-be5f-62eee41fc7db,390 Wandsworth Road  Vauxhall  London  United Kingdom,,,,51.470849,-0.13823,,,
London,Dorys Cafe,c2b6b3c2-e152-46e1-9671-21f432ad3c6f,3 Saint Albans Road  Barnet  United Kingdom,,,,51.656371,-0.202573,,,
London,Coffee Republic,06799e44-e7e8-49c3-81bd-0a072ee77ea5,215 High Road  Ilford  United Kingdom,,,,51.559591,0.075737,,,
London,X Burger House,f909956d-f73d-4c93-a443-158476c5f7f8,40-42 Willesden Lane  London  United Kingdom,,,,51.541352,-0.199744,,,
London,Curry Pot,ab96619b-38c2-4775-b972-6329ca9abdad,10 Newmarket Green  London  United Kingdom,,,,51.445654,0.040652,,,
London,Battersea Spice Restaurant,5e4c9ff1-7618-4859-8130-d0cae1f68323,63 Battersea Bridge Road  London  Battersea  United Kingdom,,,,51.478169,-0.169623,,,
London,KFC,47a535bd-5c4e-4b7d-9b68-25946b2a8d15,283 High Road  London  United Kingdom,,,,51.559313,-0.008217,,,
London,KFC,d1cb44f1-9a1e-4f0c-a1cd-88e9473cd048,496 Bromley Road  Bromley  United Kingdom,,,,51.423488,-0.003444,,,
London,KFC,7fd9a830-6942-46b2-8f7b-01d1e58917d8,172 High Street  Town Centre  Orpington  United Kingdom,,,,51.377771,0.100606,,,
London,Cafe On The Lane,bcf75abb-53a7-4116-a55b-68693a2cf539,180-182 George Lane  London  United Kingdom,,,,51.594402,0.024139,,,
London,The Black Lab Coffee House,c73fdd7a-68db-4c70-a01c-33d6b4c0ac6b,18 Clapham Common South Side  London  Clapham  United Kingdom,,,,51.46104,-0.138745,,,
London,Cafe N15,c17c3be9-0664-4ee3-9590-d831f34435ee,101 Broad Lane  London  United Kingdom,,,,51.584539,-0.067799,,,
London,Bhavna Sweet Mart,31bf01e8-5cc1-459b-a388-ba745333c86d,237 High Road  London  United Kingdom,,,,51.547572,-0.236116,,,
London,One The Avenue,d82356dd-bc61-465e-b722-c394a2a22260,1C The Avenue  London  United Kingdom,,,,51.608651,0.000106,,,
London,Rice Noodles,2423efaf-04bc-43a1-9804-fe0c1aed8a39,311 Kennington Road  London  United Kingdom,,,,51.487551,-0.11122,,,
London,Aviv Restaurant,4cca5037-9375-4627-8830-d28af386312a,87-89 High Street  Edgware  United Kingdom,,,,51.611038,-0.279879,,,
London,Cafe' marrone,7609808c-e92f-4552-ad90-12259e3cd2e4,Shadwell DLR Station Watney St London E1 2QD  United Kingdom,,,,51.511733,-0.055935,,,
London,The Elephant Inn,41149c0d-1147-4a9d-8ffb-7d3b6449ec92,283 Ballards Lane  London  North Finchley  United Kingdom,,,,51.611495,-0.179103,,,
London,Kolapata,b35d8a01-064f-4f79-9026-40bfae1261a6,222 Whitechapel Road  London  United Kingdom,,,,51.519544,-0.057121,,,
London,Dixy Chicken,a7d4ca72-cc0f-463d-b7a1-bae51be2d1c3,907 Romford Road  London  United Kingdom,,,,51.554232,0.057185,,,
London,The Whittington Cat,10cb4f9a-293a-4ace-86d7-4472c291305f,Archway  26 Highgate Hill  Lon  United Kingdom,,,,51.567749,-0.13875,,,
London,El Rincon Quiteno,3263bcba-9f08-4bca-9e89-bede2b833a5c,235 Holloway Road  London  United Kingdom,,,,51.55149,-0.111004,,,
London,Watermill Restaurant,02b82c20-aa16-46fc-8232-5d9f6439414f,3 Watermill Way  London  Wimbledon  United Kingdom,,,,51.413478,-0.183031,,,
London,Seaworld,feb79f71-a07e-4796-9c97-920bf5090af8,8 Willow Pde/Moor La  Upminster  United Kingdom,,,,51.562105,0.267623,,,
London,Urban Orient,a4542010-ed2d-4c41-9cee-f001574d3951,74 Westow Street  London  United Kingdom,,,,51.417052,-0.081699,,,
London,Likya,c803972e-70e7-4de0-acb2-c68fd8389b6b,68-70 Golders Green Road  London  United Kingdom,,,,51.572776,-0.198802,,,
London,Chutney Joe,77ec9cf5-05c6-4d7e-90dc-cd21c28898f7,The Green  London  United Kingdom,,,,51.630609,0.000576,,,
London,Yi Wah,7a3291e2-49a3-4dab-b4cd-701804b76819,138 Well Hall Road  London  United Kingdom,,,,51.455765,0.051083,,,
London,Mongolian Grill,072eb431-f3a2-45fc-820d-f56205a0644f,29 North Street  London  United Kingdom,,,,51.466141,-0.14215,,,
London,Thai River Restaurant,086efc53-24fc-43c5-b174-55408d906e12,7 North St  Hornchurch  United Kingdom,,,,51.562922,0.220016,,,
London,Dr Hunger Cafe,aaf2c271-be34-486f-b77e-323bb2e891d7,146 East End Road  East Finchley  London  United Kingdom,,,,51.591632,-0.179065,,,
London,Burger King,06fd9e38-aef0-44e6-b9a1-4202f18594ae,87-89 North End  East Croydon  Croydon  United Kingdom,,,,51.37601,-0.1017,,,
London,Subway,fc78a423-b110-4a60-9fc0-7efe68bf831c,4 Bridge St  Pinner  United Kingdom,,,,51.594084,-0.382309,,,
London,Subway,22f74cbf-98fe-490c-aad5-b9d1a3f58dcd,48 High Street  Barkingside  United Kingdom,,,,51.589619,0.081767,,,
London,Costa,50610845-fb2d-44d6-a8e5-e99025fbf89b,12 Harben Parade  London  United Kingdom,,,,51.544906,-0.176654,,,
London,Beetroot Deli Polish Specialities,45baa4a0-7562-43eb-80a3-2c8c89915953,92 Fleet Road  London  United Kingdom,,,,51.553625,-0.161836,,,
London,Delhiwala,b90cb92d-cd43-4aaf-8caa-0b6e81e18ec1,72 Vicarage Farm Road  Hounslow  United Kingdom,,,,51.477517,-0.383788,,,
London,Sambal Express,0fc600ef-3725-4d31-b821-d9c5b9a09976,245  Northolt Road  London  Harrow  United Kingdom,,,,51.564419,-0.353719,,,
London,Jade Garden,45a22142-7553-405b-ab9d-2f8b5c897abc,129 Kenton Road  Harrow  United Kingdom,,,,51.5817,-0.317487,,,
London,Wood Oven,d23d7838-81d9-4d17-a919-1e6655c17004,126 George Lane  London  United Kingdom,,,,51.592803,0.025928,,,
London,Yi Ban Chinese Restaurant,69109df1-3bf6-4833-93ff-272b7e6055bc,98 Field End Rd  Pinner  United Kingdom,,,,51.580165,-0.400325,,,
London,Dial A Curry,1f6b2301-4f25-4697-a27d-7fa1d2b798d7,147 Half Moon Lane  London  United Kingdom,,,,51.453362,-0.09297,,,
London,Taylor St barista,b7d35820-6689-45d7-824f-6ff162a7b398,110 Clifton Street  Shoreditch  London  United Kingdom,,,,51.523735,-0.082884,,,
London,Bromley Cafe,c82fa282-b6e8-4659-b0a7-e57b37d50b3b,6 High Street  Town Centre  Bromley  United Kingdom,,,,51.399785,0.016699,,,
London,Chinos Cafe,b4d18145-461d-44c2-b073-f0ec5b92ed88,82 Station Road  Hampton  United Kingdom,,,,51.415013,-0.366576,,,
London,Tai Tip Mein Noodle Bar,71c6b5ca-0641-4f28-83f2-6c6560874975,7-9 Woolwich New Road  London  United Kingdom,,,,51.490657,0.069767,,,
London,Tsunami,34149f01-04fc-4bfa-ba60-5df724f11bd2,5-7 Voltaire Road  London  United Kingdom,,,,51.46471,-0.131451,,,
London,Greggs,9a94f8c7-7b72-4997-85b5-c6bef8e594f8,3 Bell Corner/Corbets Tey Rd  Upminster  United Kingdom,,,,51.555926,0.249342,,,
London,The Sponge Kitchens,28eff6eb-3288-4efc-8020-77ff70e76a6a,106 Wickham Road  Beckenham  United Kingdom,,,,51.399347,-0.018478,,,
London,Prezzo,7900e769-d1db-4387-bc70-67a97bfb2700,127-129 Cockfosters Road  London  United Kingdom,,,,51.648906,-0.148308,,,
London,Sefers,5843d800-e7ca-46f7-8ee0-6a645203ef6a,5-7 York Road  Town Centre  Ilford  United Kingdom,,,,51.559411,0.068173,,,
London,Greggs,f2dd6fdc-8e62-4d84-a498-cd3279dec7a7,44 The Broadway  London  United Kingdom,,,,51.6147,-0.246793,,,
London,Greggs,37a89a8c-2f3e-4e89-a5a5-f8a06f41902c,6 St. Ann's Road  Town Centre  Harrow  United Kingdom,,,,51.581531,-0.33408,,,
London,Costa Coffee,b7a625b1-39b0-4595-85df-1e109dec0789,Mall Cafê© Unit  The Whitgift Centre  Croydon  United Kingdom,,,,51.375905,-0.099975,,,
London,Honeymoon Restaurant,fce0b7ff-a012-469d-a695-98771c5c181e,84 Crown Lane  London  United Kingdom,,,,51.632148,-0.128846,,,
London,Sushi-Bento Southgate,4f56ef0f-8764-42e4-9ca7-71771037b78f,8 Dennis Parade  London  United Kingdom,,,,51.633022,-0.126404,,,
London,African Queen,f86fcfff-48bf-4341-8347-0eba6aa87e9b,315-317 Wellington Road South  Hounslow  London  United Kingdom,,,,51.46123,-0.375685,,,
London,Noodle City,acee8c93-a764-4a76-808d-cbd627653321,114 Welling High Street  Town Centre  Welling  United Kingdom,,,,51.462169,0.108996,,,
London,Riverside,4daeb6d6-84eb-4af6-9003-84242fc3539a,2 High St  Hampton  United Kingdom,,,,51.414206,-0.361407,,,
London,Chicken Cottage,13d74824-e84d-4b3f-b9ae-d4acf39cb755,83 Streatham Hill  London  United Kingdom,,,,51.43932,-0.125922,,,
London,Thanh Bistro,c171ee42-cbaf-42a2-a794-617fb2ea4f04,56 Lower Addiscombe Road  Croydon  United Kingdom,,,,51.380314,-0.087057,,,
London,Sun Ya Chinese Restaurant,39cf0417-3223-471c-84e5-c0de045d2372,9-10 Stratheden Road  London  United Kingdom,,,,51.476809,0.019305,,,
London,Greggs,622ba566-fa6e-4f93-867a-2cf14d716078,190C Station Road  Edgware  United Kingdom,,,,51.614464,-0.275584,,,
London,West Cornwall Pasty Co,4ee321c5-8685-4e78-83d8-26413dc4491e,35A Market Place  Kingston upon Thames  United Kingdom,,,,51.40926,-0.306069,,,
London,Royal Cafe,1c259529-1b1c-40cd-8767-935b19f083d5,102 Fleet Road  Belsize Park  London  United Kingdom,,,,51.553671,-0.162204,,,
London,Yi Man Tang,a87d7785-4682-4547-bbee-7babdcbe193d,270 Regent's Park Road  London  United Kingdom,,,,51.597537,-0.197536,,,
London,Cafe Pagoda,c5103eb6-e99a-4c08-af65-a3d43564d131,113 North Road  Town Centre  Richmond Upon Thames  United Kingdom,,,,51.476569,-0.28476,,,
London,Chiquito,3619a900-9479-4cd9-9bc7-464a8d0d2eb8,Goresbrook Fields  Dagenham Ave  Dagenham  United Kingdom,,,,51.532312,0.136325,,,
London,Spice Bar Tandoori Express Online,c789858f-4618-4bbf-b370-4c8dfa9615d3,824 Green Lanes  London  Winchmore Hill  United Kingdom,,,,51.634308,-0.093911,,,
London,Mandaloun,4f88ebd8-3f37-4bb0-9d7e-648ab3437e3f,Westfield  London  United Kingdom,,,,51.506226,-0.219879,,,
London,Caffêë Italia,b47e7628-7580-4fa4-8bf5-4478a9aa074f,Terminal 3  Heathrow Airport  Southwing Landside  Heathrow  London  United Kingdom,,,,51.471239,-0.459558,,,
London,Cafe 23,d518cfa5-3902-4256-b65f-b7427e3a2069,23 Collier Row Road  Romford  United Kingdom,,,,51.598854,0.161828,,,
London,Sweet Tree Bakery,d15628b5-9b3c-46f9-abbe-14b5926a1a26,1 Crescent Road  London  United Kingdom,,,,51.598973,-0.123184,,,
London,The Village A-Fayre,192617d8-6d80-4b43-8c93-e2532904ac98,87 Beckenham Lane  Bromley  United Kingdom,,,,51.406359,0.003401,,,
London,Cho-San,60c2c7f4-53cb-41b4-bd7f-e42cd6400484,292 Upper Richmond Road  London  United Kingdom,,,,51.461986,-0.221206,,,
London,An Nam,d6307c01-f2d3-4b76-9498-478ddc4d5926,544 Purley Way  Croydon  United Kingdom,,,,51.362982,-0.118322,,,
London,Gustos,c0311dc2-5818-4b70-9a1e-3fc6c1d5b46e,6 Green Wrythe La  Carshalton  United Kingdom,,,,51.372454,-0.167563,,,
London,La Bella Napoli,d2cff431-9c8e-4182-84cb-b1a69462a952,255 Westwood Lane  London  United Kingdom,,,,51.451068,0.103406,,,
London,Siracusa,3480957f-afc1-4702-b819-0b5510d99b76,Brentford Lock  London  United Kingdom,,,,51.482754,-0.310404,,,
London,Curry Mahal,ab9377ad-2659-43bc-8e59-8c136a6f98fa,372-374 Northolt Road  Harrow  United Kingdom,,,,51.561186,-0.357742,,,
London,Indigo,ff68e803-4205-4cec-bed3-49c87b2e5645,101 Rosendale Road  London  United Kingdom,,,,51.437199,-0.094627,,,
London,Star Of India,ab1b5873-9a84-4220-93c4-a363ef08ef9f,39 Station Way  Cheam  Sutton  United Kingdom,,,,51.356789,-0.216094,,,
London,Meghna Tandoori,e5b45f72-d066-4a8f-8962-cc50396fb331,55 Topsfield Road  London  United Kingdom,,,,51.581651,-0.121303,,,
London,Valentino,f6e07359-6063-4bc9-81c5-e6d8edd13b6c,179-181 Edgware Road  London  United Kingdom,,,,51.518285,-0.167975,,,
London,Sapori D'italia,3ca4b2b1-f394-4d61-be85-6e015ce35887,81 The Broadway  London  United Kingdom,,,,51.615152,-0.246108,,,
London,Cake Hole Cafe @ Vintage Heaven,a657f7c2-64f6-43c2-bb09-d048c3534cfe,82A Columbia Road  London  Bethnal Green  United Kingdom,,,,51.528488,-0.070714,,,
London,Wilton Patisserie,5d19ec1b-3be3-4ff5-b2d9-58cc43ef016b,49-53 Chase Side  London  Southgate  United Kingdom,,,,51.633115,-0.130589,,,
London,Lara's Cafe,6e0defd8-a650-4390-8f1a-9b36131d6cc3,14 Norwood Rd  London  United Kingdom,,,,51.44622,-0.105154,,,
London,Caffe Nero,45533aca-c5c1-4a1c-9051-fc9cf354efb3,1-5 King Street  London W6 9HR  United Kingdom,,,,51.492754,-0.225788,,,
London,Samsara Restaurant,14251252-224d-4270-a117-5342edf5c90d,25 High Street  Cheam Village  United Kingdom,,,,51.358034,-0.215279,,,
London,Mirage,a14ca9f3-be19-490c-ae16-9083322b821c,740 Eastern Avenue  Ilford  United Kingdom,,,,51.57329,0.083949,,,
London,The White Cross Inn,a95f7ddf-e1d2-40a0-84bb-faaba7a3bab6,146 North Cray Rd  Sidcup  United Kingdom,,,,51.430259,0.138775,,,
London,Old Bexley Greek Taverna,3a9772a6-8c47-4ab8-bcfd-dacd1ab98f0a,82 Bexley High Street  Bexley  United Kingdom,,,,51.44138,0.150663,,,
London,Amandine,7fa2ab89-bdaf-41c6-8f4e-c6ff77cf3e55,176 Victoria Park Road  London  United Kingdom,,,,51.538199,-0.043956,,,
London,Dalchini Hakka,01cf30d1-4598-437d-a0cf-50d40a99e4c2,147 Arthur Road  London  United Kingdom,,,,51.434818,-0.199226,,,
London,Club Marina,8a99faae-febf-4fbb-9d12-bd89a34d1c9f,241 Regent's Park Road  London  United Kingdom,,,,51.596237,-0.198546,,,
London,Poseidon Fish Restaurant,76ba88af-5116-4e0a-ae75-5aaecced99a0,102 High Road  East Finchley  London  United Kingdom,,,,51.589881,-0.163867,,,
London,Station Express,c9690af2-1834-46a8-92a2-ababeefdb1fc,6 Station Approach  Carshalton  United Kingdom,,,,51.357422,-0.169151,,,
London,Spaghetti House,a7634228-5115-4623-811d-b5c3734ea7c8,The Loft  Westfield London Shopping Centre  Ariel Way  London  United Kingdom,,,,51.507696,-0.221592,,,
London,Subway,2d12ffb4-58c0-47ae-b2d7-28f93cb3c796,119 High Street  London  United Kingdom,,,,51.449928,-0.357802,,,
London,Lal Akash,2af8950f-5550-4c49-82a2-625b5a7f5514,25 High Street  New Malden  United Kingdom,,,,51.402601,-0.25661,,,
London,The Palace,18c8c67a-9402-40b5-a12e-3e368080689b,189 High Street  Town Centre  New Malden  United Kingdom,,,,51.3993,-0.255708,,,
London,The Singing Buddha,bf5bc2b6-caf1-4bd5-878a-93d1bc0e47b3,15 Abbotsbury Road  Town Centre  Morden  United Kingdom,,,,51.40269,-0.192054,,,
London,Zizzi,a59e2460-59b5-4235-b538-53a42e6ee203,198 George Lane  London  United Kingdom,,,,51.594784,0.023125,,,
London,Marks and Spencer,ae1cc254-c2b9-4f5b-9787-00772d63f1b9,99-107 High Street  Teddington  United Kingdom,,,,51.427346,-0.329162,,,
London,Bobby Moore Room,b254ccaf-581c-40dc-9392-1f49b9c6f795,Wembley  United Kingdom,,,,51.557034,-0.279637,,,
London,Thai Rice,89b5e17b-10c6-4d0d-a9cd-0a326e2f2c32,1030 Harrow Road  London  United Kingdom,,,,51.531155,-0.23048,,,
London,Forks,f2cecf9d-683a-43ed-86f1-6e9516e3e3b2,7A Swain's Lane  London  United Kingdom,,,,51.561812,-0.150298,,,
London,The Punjabee Restaurant,44cb987c-fd81-485e-b5d2-3c92019b36b4,118 The Broadway  Southall  United Kingdom,,,,51.511808,-0.381411,,,
London,Exeter Street Bakery,db2dca4d-b9a6-41fd-b6ef-26f996e26b07,Alliance Court  Alliance Road  London  United Kingdom,,,,51.523441,-0.274317,,,
London,The Golden Orient,f3f06296-7b7e-47e8-862d-c525db3e1070,639 High Road Leytonstone  London  United Kingdom,,,,51.562801,0.00926,,,
London,McDonald's Acton,a063a2b8-3cb0-4bd4-af25-87a1021d22e5,147-151 High Street  London  United Kingdom,,,,51.506917,-0.270404,,,
London,Delight Kebab House,86f0ecfd-34e8-4173-9bca-73b543f17925,107 Askew Road  London  United Kingdom,,,,51.503089,-0.243057,,,
London,Surbiton Cafe,64a00b67-c48d-46fe-964e-2fd1e8ca503e,53 Brighton Road  Town Centre  Surbiton  United Kingdom,,,,51.39153,-0.310121,,,
London,Wenzel's,1924aee8-f51d-4ae0-be56-9c8ceca99583,60 High Street  Harrow  United Kingdom,,,,51.594841,-0.335059,,,
London,Greggs,3a7a07a6-6662-46c5-8103-dfdadddd64ad,8 Replingham Road  London  United Kingdom,,,,51.444658,-0.205644,,,
London,Subway,0978fa9a-b74e-4e0d-99fe-de98b22f4584,38 High Street  Ealing  United Kingdom,,,,51.512451,-0.304798,,,
London,New China Gold,5867c550-dee7-4392-87a2-00fe096aa0ad,939 Green La  Dagenham  United Kingdom,,,,51.561448,0.140797,,,
London,East One,5e2207cd-194f-460d-b3e7-db5619e867af,67-79 Station Road  Edgware  United Kingdom,,,,51.613063,-0.276932,,,
London,Bella Italia,c4712080-a84c-4468-8f76-b6579ecb70be,18 George Street  Croydon  United Kingdom,,,,51.373738,-0.099344,,,
London,Starbucks Coffee,9a4c0cf0-70cc-45eb-8f7f-37ac2f2fc2f9,355-359 Strand  London  United Kingdom,,,,51.511194,-0.119869,,,
London,East Sheen Express,5e4c4ba1-8283-4bfe-9b2a-cafa5d1f4af6,387 Upper Richmond Road West  London  East Sheen  United Kingdom,,,,51.464397,-0.267902,,,
London,Best Roman Cafe,0705a638-4633-4aba-8870-bb08746da73f,426 Roman Road  London  United Kingdom,,,,51.531863,-0.034768,,,
London,Sal's Cafe,c51403a9-3fce-4dce-bd61-603ae2a19558,303 Upper Elmers End Road  Beckenham  United Kingdom,,,,51.391952,-0.038194,,,
London,Wick,2f3ed81f-e26a-417f-b21e-4449e9af33ef,28 Felstead Street  London  United Kingdom,,,,51.544205,-0.026864,,,
London,Coffee Rapido,42c7a8ad-a5d0-4db7-9b46-70f51745b37a,13 Saint John's Road  London  United Kingdom,,,,51.473725,-0.33825,,,
London,Gennaro Delicatessen,7d8ea2fa-22f8-4739-ae74-6000631781b8,23 Lewis Grove  London  United Kingdom,,,,51.461697,-0.009598,,,
London,Carob Tree,d72f9bb9-f06f-4231-b29b-c21b09b6080a,15 Highgate Road  London  United Kingdom,,,,51.561426,-0.150393,,,
London,Asia Tandoori Restaurant,f8ed7aaa-5861-4616-a5e7-ed5e57a954a7,19 London Road  Wallington  United Kingdom,,,,51.37926,-0.15532,,,
London,Shujon Tandoori,68ec68b1-bc3b-45d0-a4dd-6eeafbac4b6c,308 Barking Road  London  United Kingdom,,,,51.532868,0.053688,,,
London,Costa Coffee,715192d4-0368-48c4-b516-1456b0e6cedd,New Broadway  London  United Kingdom,,,,51.514858,-0.302047,,,
London,aroma,2a5a5a59-4139-4705-a5e2-ce205d85f051,95 Kingston Road  Town Centre  New Malden  United Kingdom,,,,51.400205,-0.263395,,,
London,Burger King,c2e174ea-d33a-4312-98bf-dbd57393fe61,58 South Street  Romford  United Kingdom,,,,51.576909,0.181295,,,
London,Hyderabad Tastes,3b69504d-75db-48e9-9e0c-b68552eec609,22 Kingsley Road  Town Centre  Hounslow  United Kingdom,,,,51.471017,-0.355372,,,
London,Uffizzi,dce45458-1d74-4915-960c-8f813019b263,755 Lea Bridge Road  City of London  United Kingdom,,,,51.57944,-0.005053,,,
London,Simply Blues II,70dbaa42-21a7-42e0-b4a3-ace2f091b250,48 Station Lane  London  Hornchurch  United Kingdom,,,,51.56055,0.220509,,,
London,Tarantetella,e45f0cc1-f7eb-426f-9098-95591ec33811,4 Elliott Road  London  United Kingdom,,,,51.492946,-0.256186,,,
London,From China,a48bfa5f-4d67-4a42-ae5f-d0c926725dae,7 High Street  Town Centre  Barnet  United Kingdom,,,,51.651097,-0.196772,,,
London,The Snackpot,254db910-12a3-4d11-a8ee-074942d3c91b,48 Coombe Road  Kingston upon Thames  United Kingdom,,,,51.412432,-0.287245,,,
London,Peppers,b979c727-e7df-4399-8ecd-c600d922f862,94 Stafford Road  Wallington  United Kingdom,,,,51.358948,-0.142989,,,
London,Savoy Tup,6e23e933-76b7-4860-9702-3ae63066f29c,2 Savoy Street  Strand  London  United Kingdom,,,,51.510897,-0.119469,,,
London,Island Gardens Cafe,39af8519-a7fe-4d67-a28b-cf0350460b28,Island Gardens  Saunders Ness Road  London  United Kingdom,,,,51.48781,-0.01011,,,
London,Nilima Tandoori,e830566f-a20a-46f2-aaa3-81eda5878b2f,175 Replingham Road  London  United Kingdom,,,,51.44565,-0.20068,,,
London,Gourmet Burger Kitchen,b57bfc1f-82ff-4012-a074-668886b2e281,163-165 Earl's Court Road  London  United Kingdom,,,,51.492661,-0.193575,,,
London,Docklands Fried Chicken,78bbf2b8-fda6-4d5d-afb3-64afe582e296,46 Westferry Road  London  United Kingdom,,,,51.499009,-0.02612,,,
London,KFC,450b478d-d7ea-40a5-985f-10e7f47633f3,Unit 37/38  The Pavillions Shopping Centre  Chequers Square  Uxbridge  United Kingdom,,,,51.547505,-0.48102,,,
London,Kings Cafe,3653edaf-9883-4b46-abb4-065d18006aef,9 Cundy Road  London  United Kingdom,,,,51.511015,0.032824,,,
London,Costa Coffee,b3afa771-2556-4d68-bc8e-d320d1fa0e98,Green Lanes  London  United Kingdom,,,,51.576412,-0.097738,,,
London,McDonald's,2c729764-d56e-478f-b758-1a792680c693,22-24 Station Road  Town Centre  Hayes  United Kingdom,,,,51.506445,-0.419164,,,
London,Fry-Days,051c5abb-c62a-49ed-8b96-14a62fa259c4,9 Swakeleys Road  Uxbridge  United Kingdom,,,,51.564349,-0.444566,,,
London,Mr Cod,300a94ca-a84a-4b73-87b6-485897814356,37 Shaftesbury parade  Shaftesbury Avenue  South Harrow London  United Kingdom,,,,51.571855,-0.353845,,,
London,Costa,ee7fe3e0-3d53-4152-bf4e-d9348082750a,118 Westminster Bridge Road  London  United Kingdom,,,,51.498923,-0.112781,,,
London,J N K Fish Bar,c9e8e0c5-2b07-48ae-addf-b55cd4ec67d0,255 brighton Rd  South Croydon  United Kingdom,,,,51.354287,-0.09761,,,
London,"Drink, Shop & Do",ae92ee55-543f-4d3b-98e4-43b89d6392a8,9 Caledonian Road  Kings Cross  London  United Kingdom,,,,51.531361,-0.121113,,,
London,Fratelli,e5e2ca66-f2a4-4f74-ac9f-31670cae9cec,Plaza Parade  London  United Kingdom,,,,51.53571,-0.190108,,,
London,Chicken & Pizza Spot,23d7c7ef-8ca4-4cea-bd63-511cda6c6322,226 Northfield Avenue  West Ealing  United Kingdom,,,,51.500092,-0.315328,,,
London,Nando's Chiswick,8bd0f522-507d-468b-9100-948a0671585c,187-189 Chiswick High Road  London  United Kingdom,,,,51.492363,-0.25722,,,
London,Marinis Ltd,ba395c9e-9a08-4d4e-84b7-345fc9b49616,115 Station Road  Hampton  United Kingdom,,,,51.415648,-0.37014,,,
London,New Hong Kong Garden,d3d6de38-aa90-4529-b620-b04276bd8cba,22 Woolwich Road  London  United Kingdom,,,,51.486041,0.012849,,,
London,Alistair's Cafe,6750cbcd-50f2-48a2-abd0-381e7afd24bf,3 Westow Street  Norwood  London  United Kingdom,,,,51.418819,-0.082475,,,
London,Le Petit Boulanger,b34f0fa8-0ea7-4425-b69e-c5af3e35225a,25 Abbeville Road  London  United Kingdom,,,,51.453802,-0.14068,,,
London,Pret A Manger,1fc887a5-7b5a-42f0-91b2-34efe0230279,85 Aldgate High Street  London  United Kingdom,,,,51.513617,-0.07623,,,
London,Hot Wok,e5798419-3eb9-4859-b2a3-cbddaebc1c61,121 Colney Hatch Lane  London  United Kingdom,,,,51.600837,-0.148017,,,
London,Bonne Bouche Catering,635230de-5059-4321-ad15-ae14b67b26d8,131 Praed Street  London  United Kingdom,,,,51.516547,-0.173684,,,
London,Pret A Manger,a2bd20ff-6cbd-4445-bb66-428a30eefa48,173 Victoria Street  London  United Kingdom,,,,51.49644,-0.142371,,,
London,Pret A Manger,a3aca9a8-9b7d-426c-b3ff-fd3e09ea3fbe,Unit 2  Victoria Place Shopping Centre  London  United Kingdom,,,,51.494785,-0.145307,,,
London,Pret A Manger,962a393f-fbd4-49bc-b7fb-ea83de35470c,South Quay Plaza  3B Marsh Wall  London  United Kingdom,,,,51.500995,-0.019381,,,
London,Burger King,4b10a4bd-2f5b-4edb-8a1f-619622e2370c,Brent Cross Shopping Centre  Prince Charles Drive  London  United Kingdom,,,,51.576175,-0.224523,,,
London,Spice Of India,124a2822-f5e2-4afb-b9ab-02965c4172b5,757 Green Lanes  London  United Kingdom,,,,51.631846,-0.095722,,,
London,AT Thai Restaurant,a57e2ea2-e828-47d7-938b-ec76df17face,30 Greyhound Road  London  United Kingdom,,,,51.485043,-0.218394,,,
London,Lupita,1df57146-b7fd-41f7-872f-66cb1fec6da2,13 Villiers Street  London  United Kingdom,,,,51.508402,-0.124232,,,
London,Charlton Kebab Housee,ef77d2a2-1354-4466-9418-05df780b5783,41 Charlton Church Lane  London  United Kingdom,,,,51.486334,0.032491,,,
London,IL Molino,32d37cc6-4daf-4e78-91a2-d0f07ea58082,284 Battersea Park Road  London  United Kingdom,,,,51.471732,-0.167558,,,
London,Mega Bite Cafe,297bf35e-0a23-4393-a016-d9516d1d7d44,99 Westmount Road  London  United Kingdom,,,,51.456694,0.059284,,,
London,Sushi Japan,6c04dabf-5d2d-4ea9-988a-748e58086950,843 High Road  London  United Kingdom,,,,51.617466,-0.176928,,,
London,Vinisha,1a0d10e3-f7b6-403a-afbb-0f2aa6277e19,2 Loampit Hill  London  United Kingdom,,,,51.465745,-0.018801,,,
London,McDonald's,ba157b61-f87e-4189-a99c-a2a59b72b263,County Hall  Westminster Bridge Road  London  United Kingdom,,,,51.5015,-0.119573,,,
London,Subway,3ee417c7-3f9b-48f6-8b43-b8882aac6f58,6 Hartfield Road  London  Wimbledon  United Kingdom,,,,51.420287,-0.206307,,,
London,Pizza Parlour,d395d14c-2674-4cea-8ef9-730fed5a6e8f,218 Ealing Road  Town Centre  Wembley  United Kingdom,,,,51.544299,-0.296978,,,
London,Holy Cow,d28fca7b-b065-4bae-b7f5-ffb236962529,87 Junction Road  London  United Kingdom,,,,51.563258,-0.135598,,,
London,The Meze Bar Restaurant,4f49b58f-701a-4182-ba99-e75c8854a42a,49 Cannon Hill  Southgate  London  United Kingdom,,,,51.624383,-0.12327,,,
London,The Best Kebab,1d1a0a5c-9b58-41a9-a65b-312ac6761d60,2 The Parade  Hampton  United Kingdom,,,,51.429092,-0.353677,,,
London,Busaba Eathai,f4ef2629-4a92-4701-b35a-1c58957c40e3,319 Old Street  London  United Kingdom,,,,51.526892,-0.081184,,,
London,Lee Keng,6cc80d37-b12a-41d6-8fde-17c558c5fa67,13B Bromley Road  Beckenham  United Kingdom,,,,51.406963,-0.016965,,,
London,Kyrgyz Kazakh House Restaurant,5f21dc87-fcb1-4335-8143-f4a61960c56f,Pasha Hotel  298 Camberwell Road  London  United Kingdom,,,,51.479497,-0.094376,,,
London,The Coffee Pot,594b63d4-490c-4a29-b766-8dac2948da3f,554 London Road  Hounslow  Isleworth  United Kingdom,,,,51.474325,-0.344281,,,
London,Dew Drop Inn,ac8eccb3-3639-4466-84b6-b26f22ad328f,125 High Street  Town Centre  Brentford  United Kingdom,,,,51.482878,-0.309024,,,
London,Crystal Palace Tandoori,82f5fa97-e6c9-4614-9c99-12cfb94659d2,24 Westow Hill  London  United Kingdom,,,,51.419679,-0.081909,,,
London,The Gryphon Harvester,b28a372a-1b56-4a8c-aa07-e0bf42f7cd12,Vera Avenue  London  United Kingdom,,,,51.6427,-0.098707,,,
London,Eat Sushi,97bcfd47-4d47-4bf0-8d0d-5a49298be149,16 Station Terrace  London  United Kingdom,,,,51.53398,-0.219472,,,
London,Southgate Cafe,73e0bd53-95e8-495d-bb60-7c3169d23227,18 The Broadway  London  United Kingdom,,,,51.632261,-0.126805,,,
London,KFC,fb19c5e6-8907-4858-8962-361f1966b583,8 Whiteleys Parade  Town Centre  Uxbridge  United Kingdom,,,,51.52981,-0.447338,,,
London,Nisa Thai Restaurant,037636b1-4b7a-46c8-ad2e-4745834d2904,23 Stonecot Hill  Sutton  United Kingdom,,,,51.384816,-0.212191,,,
London,Yummy V,4aafb1f7-51d0-4942-8dff-3ece7f9c63b7,55 Station Road  Harrow  United Kingdom,,,,51.587191,-0.33222,,,
London,Barracuda,0c1636d8-f3ee-415c-a39b-941aa5bf54ab,1 Headstone Drive  Harrow  United Kingdom,,,,51.592568,-0.345524,,,
London,Joy Indian Cuisine,25b537ce-3e8b-4ada-90f9-88a58fc82c91,37 Brighton Road  Surbiton  United Kingdom,,,,51.39153,-0.310121,,,
London,Kemps,d93dec78-21a6-4fa9-b68f-9aa59c259847,327 High Road  Harrow  United Kingdom,,,,51.603754,-0.339582,,,
London,Greggs,427fe43a-8b3b-4880-9edc-4239add29c46,74 Southside Wandsworth Wandsworth High Street  Southfields  London  United Kingdom,,,,51.455037,-0.194335,,,
London,Nando's,077330da-1fb3-400f-a3b2-ba51e46b90e1,2 The Town  Enfield  United Kingdom,,,,51.651997,-0.081105,,,
London,Campino,55dfcb0c-23d1-4389-a3e5-400e585fba7c,1 Lansdowne Way  London  United Kingdom,,,,51.474551,-0.121046,,,
London,The Frying Squad,f3d980e5-f690-4cb5-a059-8094b167f2c3,194 Hither Green Lane  London  United Kingdom,,,,51.451485,-0.006623,,,
London,Anatolia,e375afef-e054-4efe-9dc4-36f83f7a353c,277 High Road  London  United Kingdom,,,,51.55924,-0.007973,,,
London,Chutneys Restaurant,e10ee739-5f67-40e1-a0dc-5c5c53c284c1,31A Hartfield Road  Merton  London  United Kingdom,,,,51.419519,-0.20564,,,
London,The Siam Orchid Thai Restaurant,71f59437-5cf4-4d87-a7d6-f6c341c44f96,21 High St  Carshalton  United Kingdom,,,,51.365276,-0.161433,,,
London,Quality Tandoori Restaurant,ee20ef2f-46de-4f86-a87b-873c7e8c62da,138 High Road  East Finchley  London  United Kingdom,,,,51.591093,-0.164732,,,
London,Giannis,236bf0b0-cb6c-481f-8e49-7bd57be081dc,48 Horseferry Road  London  United Kingdom,,,,51.494942,-0.12728,,,
London,Papa John's,06745c14-7b3d-4b35-a95b-17af605e45cd,35 High Street Wanstead  London  United Kingdom,,,,51.579664,0.024268,,,
London,Panacea Coffee & Wine Lounge,b9077d67-b960-4462-853d-30b8b59b854b,190 High Street  Orpington  United Kingdom,,,,51.377352,0.100217,,,
London,The Jolly Badger,1fd73327-2d8f-44d2-8907-28bc67463b75,128 Hale Lane  Edgware  United Kingdom,,,,51.616884,-0.260248,,,
London,Capri Pizza,715f12a2-b8e7-4580-8de9-83d316f6c6e9,204 Merton Road  London  United Kingdom,,,,51.450695,-0.19904,,,
London,Antep Mangal,fe637fef-d1a9-4cde-8302-f551cd802b28,179 High St  London  United Kingdom,,,,51.413792,-0.051482,,,
London,Blue Water Fish Bar,896651ba-c8b3-44e0-b9d8-5b964d6ef0af,171 Stafford Road  Town Centre  Wallington  United Kingdom,,,,51.359397,-0.138959,,,
London,The Draft House Tower Bridge,c711e40d-cde3-486e-864c-c1273e209d60,206-208 Tower Bridge Rd  London  United Kingdom,,,,51.502903,-0.076938,,,
London,Pizza Capri,421b18c5-59cc-4ea3-80a2-291fdfb041a5,20 Berrylands Rd  Surbiton KT5 8RA  United Kingdom,,,,51.393086,-0.295829,,,
London,Holborn Whippet,df9e693e-b016-4d6c-ab3a-84e07bfbd30f,25-29 Sicilian Avenue  Holburn  London  United Kingdom,,,,51.51844,-0.12127,,,
London,Loose Cannon - Bar and Events,2e917fd8-54a7-47ce-8b55-fd993259c34b,13-16 Allhallows Lane  The City  United Kingdom,,,,51.510075,-0.09057,,,
London,Porter and Sorter,7030f584-7c44-4b92-9256-95a73ced4882,Station Road East  Croydon  United Kingdom,,,,51.376036,-0.091943,,,
London,Looking Glass Cocktail Club,332bae6a-0c1a-49c5-8821-d90f16795a8b,49 Hackney Road  London  United Kingdom,,,,51.527758,-0.076828,,,
London,Sainsburys North Cheam,67aafe57-0cfc-40e6-9904-bfd5fbed37ed,566 London Road  Sutton  United Kingdom,,,,51.372109,-0.225704,,,
London,Horse & Well,59c5555b-6b7a-433f-b605-daa387e546f0,United Kingdom,,,,51.616933,0.026536,,,
London,The Park Tavern,8f2fc0b8-6c11-497a-a0dd-a1c726c48fd7,19 New Road  Kingston upon Thames  United Kingdom,,,,51.419454,-0.287773,,,
London,Julie's,b52e36d4-272e-4e2a-b272-31070658f66d,135 Portland Road  London  United Kingdom,,,,51.510124,-0.210511,,,
London,Cafe Rouge,46cc3cd7-5a35-4775-84b9-d83cac3aea5d,Hays Galleria  Tooley Street  London  United Kingdom,,,,51.505744,-0.083314,,,
London,Yat Sheng,f0f1c676-d16a-4639-923c-b5e56dfebd36,188 Horn Lane  London  Acton  United Kingdom,,,,51.515788,-0.267994,,,
London,Sam's Chicken,22ae692a-3058-487a-aa05-1ccbbd7f3e31,439 High Road  Brent Park  London  United Kingdom,,,,51.54905,-0.243261,,,
London,McDonald's,8533f1c8-5f5b-45f2-a028-28aacad1e200,1-2 Westfield Stratford City  London  United Kingdom,,,,51.540919,0.001045,,,
London,Subway,3f4ecbbb-d499-46d6-ab13-21ac56dc38c1,34 High Street Harlesden  Harlesden  United Kingdom,,,,51.536147,-0.24791,,,
London,Mr India,3036676b-0a6b-4c68-a5af-593b0e11d7c5,4  The Parade  Oldfields Rd  Sutton  United Kingdom,,,,51.371958,-0.208253,,,
London,Miller & Carter The Leefe Robinson,873f6c82-d1ec-4525-8505-29060b38d821,Brockhurst Corner  Uxbridge Road  Harrow  United Kingdom,,,,51.612965,-0.3331,,,
London,Il Camino,40e9d0d8-6929-4ce8-9959-510d82df3363,282 Burlington Road  New Malden  United Kingdom,,,,51.400208,-0.238707,,,
London,Mango Lounge,060556ee-e4da-46c6-9ffe-574be0834d4f,114 Stafford Road  Surrey  United Kingdom,,,,51.35885,-0.143423,,,
London,Reku Zen,28313191-eec8-421d-800b-b7768c087053,85 High Street  Town Centre  Orpington  United Kingdom,,,,51.379369,0.102785,,,
London,Charcoal Grill,d4469e54-21e9-44d7-b975-8275b72d5338,195 Station Lane  Town Centre  Hornchurch  United Kingdom,,,,51.554817,0.219758,,,
London,Mekan,8af48e23-e133-4a72-8724-df4f86502cf1,13 Bromley Road  City of London  United Kingdom,,,,51.443591,-0.020224,,,
London,Caffe Nero,e1781028-760e-4920-af75-a926a09152bc,89 High St  Sidcup  United Kingdom,,,,51.426542,0.101336,,,
London,Caffe Nero,2ced2bf5-d3f0-4f28-a939-6fed0a32a337,65 Station Rd  London  United Kingdom,,,,51.631628,0.004885,,,
London,The Castle,560863ac-9fc4-4aae-a42e-6676fec125ee,100 Holland Park Avenue  London  United Kingdom,,,,51.506886,-0.206968,,,
London,Taste Of Lahore,8d27022f-9c75-449b-bb19-93ce4d4b5414,340 Rayners Lane  Town Centre  Pinner  United Kingdom,,,,51.576006,-0.370787,,,
London,the Bhaji,a8efadc1-5efe-4761-8464-b54b5d644b17,6 Chapel House St  London  United Kingdom,,,,51.488005,-0.016946,,,
London,Jun Ming,31cf0d52-6eeb-49d6-9c25-a2b00e4c0253,34 Heath Road  Twickenham  United Kingdom,,,,51.445446,-0.331317,,,
London,Prima Donnas,d0d0b026-ae31-4b28-a598-ec8b539646b6,1-3 Red Lodge Rd  West Wickham  United Kingdom,,,,51.380423,-0.013796,,,
London,Castle Pizza,16843b82-2f6d-4842-9d76-24cb419bf92d,117 High Street  Town Centre  Brentford  United Kingdom,,,,51.483018,-0.30847,,,
London,Crumbs,b33f8197-825c-442f-bba0-87c7046cec09,497 Yeading La  Northolt  United Kingdom,,,,51.535389,-0.394414,,,
London,KFC,15e90497-7563-4aaf-a5a2-e7146847b54b,19 Thomas Street  London  United Kingdom,,,,51.490521,0.066264,,,
London,Greggs,00079185-784b-499c-bad2-aa9c8171c19b,86 Woodcote Road  Town Centre  Wallington  United Kingdom,,,,51.358523,-0.149714,,,
London,Zaituna Coffee,764e0c62-2add-4633-bc7d-93149f73c7e5,9 Homesdale Road  Town Centre  Bromley  United Kingdom,,,,51.395795,0.026829,,,
London,Troodos Greek Taverna & Restaurant,dabbf4ed-ff9a-47e5-9d6e-5b71229aa16d,179 Priory Road  London  United Kingdom,,,,51.587395,-0.13316,,,
London,Costa Coffee,25c85bd9-d225-4ba8-a055-67e5b696a776,66 Highgate High Street  London  United Kingdom,,,,51.570891,-0.148075,,,
London,Milad Restaurant,3382f469-d140-4365-933d-65b41a3013d5,67 Cricklewood Broadway  London  United Kingdom,,,,51.554017,-0.212401,,,
London,Tandav,086bd6f7-9adc-43e8-a4ec-56e54c8358db,260 High Street  Sutton  United Kingdom,,,,51.368216,-0.195018,,,
London,Omrith,f2e783e0-9737-4f7a-a27f-320231aacc79,104B Forest Hill Road  London  United Kingdom,,,,51.451952,-0.059982,,,
London,Shortlands Tavern,2166e568-fa42-45dc-bd33-4bcdb333defb,5 Station Road  Bromley  United Kingdom,,,,51.405362,0.003452,,,
London,La Paella Tapas Bar,d65b8587-6530-4141-aec3-45126b91a8c5,9 The Broadway  London  United Kingdom,,,,51.632708,-0.127,,,
London,Crystal Pizza,4ab6adf5-5521-4e02-b397-2d18b8f93d46,433 Kenton Road  Harrow  United Kingdom,,,,51.586741,-0.298823,,,
London,The Raj Tandoori,7775616c-bf65-4956-904c-d2188602c32a,163 Ewell Road  Surbiton  United Kingdom,,,,51.388544,-0.297357,,,
London,Harefield Village Cafe,176ce26d-b3a6-453a-97b4-fe1616629f08,High St  Harefield  United Kingdom,,,,51.602901,-0.483014,,,
London,Kouzina,21edd3b4-af2d-46a1-aed3-aad907a3ea79,345 Green Lanes  London  United Kingdom,,,,51.618773,-0.107814,,,
London,Friendly Take Away Food Shops,8e8aab91-db91-4ce5-b331-2d1cd2524aca,1 The Broadway  Sutton  United Kingdom,,,,51.365576,-0.186708,,,
London,Forest Tandoori,bb985ed9-8cf7-4857-b403-f73e59bfecaf,102 Wood Street  London  United Kingdom,,,,51.588656,-0.004404,,,
London,Safari London,38d2355d-06fd-46e8-945d-546a5453a4fa,440 Streatham High Road  London  United Kingdom,,,,51.421307,-0.128968,,,
London,Aqua Brasserie croydon,5f9bc156-345d-4f3a-bd74-932e8c1c805c,35 S End  Croydon  United Kingdom,,,,51.366731,-0.098903,,,
London,Cafe Au Lait,2baa7c07-8f74-415a-9f7e-08f98f4896ce,46 Fife Road  Town Centre  Kingston upon Thames  United Kingdom,,,,51.411813,-0.302312,,,
London,The Point Cafe,20f1b65b-20b5-4b0e-bbb2-ac6d00f19979,8 Red Lodge Road  Town Centre  West Wickham  United Kingdom,,,,51.380209,-0.014124,,,
London,Bagels Already,00e1f216-fb93-417e-be4e-6d5d3908416d,Richmond railway station Platform 2  Richmond railway station  Richmond  United Kingdom,,,,51.463659,-0.301866,,,
London,Shalom Hot Bagel Bakery,bcc68998-bb5e-41a3-ad97-698f14632034,35 Woodford Avenue  Ilford  Essex  United Kingdom,,,,51.577648,0.064835,,,
London,Zizzi,689b7876-3043-4226-a202-c50e079a88af,6 High Street  Pinner  United Kingdom,,,,51.594111,-0.380747,,,
London,Spice Of India,0d33066e-e66b-4799-9f53-09f6a9549a15,2  The Broadway  Front Lane  Upminster  London  United Kingdom,,,,51.561541,0.267309,,,
London,Saravanaa Bhavan,ce0e532d-fc73-4a79-b390-e918ade89aac,403 Alexandra Avenue  Harrow  United Kingdom,,,,51.572839,-0.371805,,,
London,Cafe Milano,6c39858c-eb29-43bf-bea8-ad3feacc0f28,204 Upper Richmond Road  London  United Kingdom,,,,51.461095,-0.217557,,,
London,St Georges,04552fbe-72ec-46eb-a965-47a9a4c49839,7 Pepper Street  London  United Kingdom,,,,51.49608,-0.015745,,,
London,akinos cafe,ae093636-02e2-42d3-b0d6-94d46a3e9fa7,34 Surbiton Road  Kingston upon Thames  United Kingdom,,,,51.401892,-0.304968,,,
London,Chris's Fish Bar,b9d91e79-4be4-4cbb-bbdf-cc897e2bedac,165 Francis Road  London  United Kingdom,,,,51.563933,-0.005773,,,
London,Old Tree,93cb2645-e380-42f4-839c-6cf6ab35f222,105 Golders Green Road  London  United Kingdom,,,,51.573159,-0.199904,,,
London,Al Forno,e2036cdd-3c16-4b0e-aa36-2e3179906c4d,Townend Parade  1-3 High Street  Kingston upon Thames  United Kingdom,,,,51.406626,-0.307755,,,
London,Preto,afadbe30-22a4-4ed9-ab3a-adeb972c1dcc,31-33 Putney High St  London  United Kingdom,,,,51.464637,-0.214718,,,
London,Chasing Dragon,49441637-5e37-4de9-9ec2-5b2094205840,8 Headstone Drive  Harrow Wealdstone  United Kingdom,,,,51.594315,-0.336123,,,
London,Starbucks Coffee,06e7e90a-7f9b-45a3-b388-c45e90715d63,Cromwell Rd  London  United Kingdom,,,,51.49555,-0.18789,,,
London,GAIL's Artisan Bakery,cc985fdd-e9b0-45c0-8c59-e8c5f0e0bd6a,138 Portobello Road  London  United Kingdom,,,,51.514537,-0.204074,,,
London,Caffe Casbah,01bcb48d-8bb6-42c9-88f7-9e41f4349f49,140 High Street  London  United Kingdom,,,,51.414158,-0.052469,,,
London,Shapla Indian Restaurant,053a4489-5278-4f97-b6ad-7821f34f3c36,37A High St  Barnet  United Kingdom,,,,51.652783,-0.199493,,,
London,Hollywood Pizza & Chicken,c5da32c0-1275-4832-a5e9-98e60dab32f3,126 High Street  London  United Kingdom,,,,51.513831,-0.473093,,,
London,Shaon Restaurant,6a92b44c-80c5-4a4c-bb9e-80ffdf98c478,109 High Street  Town Centre  Chislehurst  United Kingdom,,,,51.41986,0.06538,,,
London,Scrumpchinos,a2d3a338-01fd-44dc-a248-cbc0b55379a0,38 George Street  Croydon  United Kingdom,,,,51.373844,-0.098597,,,
London,Esca,4065d6f2-7e36-44da-bed3-7d750a000c73,160A Clapham High Street  London  United Kingdom,,,,51.462483,-0.136592,,,
London,Burger King,3a30eadb-8577-45a7-a28e-e73556df42e8,Priory Retail Park  Christchurch Road  London  United Kingdom,,,,51.416535,-0.179576,,,
London,Dandelion,22b266fa-5f95-41d3-be9a-11ab9c4fc20d,120 Northcote Road  London  United Kingdom,,,,51.456278,-0.16546,,,
London,Old Ford Cafe,96c0b23a-b997-4b6d-a8a2-6f0756a1e8c0,462 Old Ford Road  London  United Kingdom,,,,51.535003,-0.03307,,,
London,The Beulah Spa,c2165225-9ac2-4a4a-8cf2-8ff419f501da,41 Beulah Hill  London  United Kingdom,,,,51.413863,-0.092378,,,
London,Skipjacks,1a84757a-5cf5-45e0-a64f-4989d009c8e6,268-270 Streatfield Road  Harrow  United Kingdom,,,,51.595469,-0.295301,,,
London,Zizzi,7a8e384c-6f0e-4c48-9e4d-23fd1d78b407,43 Market Place  London  United Kingdom,,,,51.408847,-0.306156,,,
London,Kebabish,061fb79d-5a54-4ec0-b9af-27abb95fa0bb,5 Queensbury Circle Parade  Town Centre  Stanmore  United Kingdom,,,,51.595256,-0.294827,,,
London,McDonald's,bf22a8e7-4ead-4fab-a861-8e1abdaa1080,Unit 23  Norfolk House  George Street  Croydon  United Kingdom,,,,51.374306,-0.096105,,,
London,The Armoury,0d22482c-94c7-4790-b229-23605855c610,14 Armoury Way  London  United Kingdom,,,,51.458877,-0.19464,,,
London,Savoy Cafe,019d1732-211c-4268-a343-64a2f44355ee,130 Morden Road  Town Centre  Mitcham  United Kingdom,,,,51.399815,-0.180348,,,
London,Cafe Rouge,fd17ac48-c4aa-4d30-89fe-3f3aabcd8963,Landside  Terminal Three  London Heathrow Airport  Hounslow  United Kingdom,,,,51.471226,-0.453315,,,
London,Sea Shell Fish Bar,0b162324-5a99-4b6e-b173-111d26e6391e,4 Long Lane  London  United Kingdom,,,,51.604416,-0.188562,,,
London,Makiyaki,cf416f20-f84a-46a3-ad5a-11437a810cd2,Unit G2  Excel Marina  London  United Kingdom,,,,51.507439,0.02146,,,
London,Maggie's Traditional Fish,3e3a0f75-6669-49f1-9ab9-02fdcd726aa0,71 Mitchley Avenue  South Croydon  United Kingdom,,,,51.330363,-0.092215,,,
London,Spice Of India,3d2dd1ad-db92-45a5-b968-bf017ba0e9a6,27 High Street  Twickenham  United Kingdom,,,,51.452253,-0.357914,,,
London,Ma Goa,e6592afa-06bd-4fdb-9a82-aeb84d8cc630,242-244 Upper Richmond Rd  London  United Kingdom,,,,51.461401,-0.219206,,,
London,Salisburys Ltd,9421e7ce-4162-4d81-aafa-dc8be641d8b6,4 Salisbury Road  Bromley  United Kingdom,,,,51.389536,0.042217,,,
London,Miller & Carter,933f9c2f-5de2-4fd7-820f-eb8cc25ebadf,154 Bury Street  Ruislip  United Kingdom,,,,51.584165,-0.432151,,,
London,Hanwell Chick 'N' Spice,a7866d89-5537-4102-9c1d-9782a8782466,127 Uxbridge Road  London  United Kingdom,,,,51.508881,-0.336729,,,
London,Bedfont Cafe,6073c386-1604-404c-8fc2-4ed9ffb4c875,475 Staines Road  Feltham  United Kingdom,,,,51.453715,-0.427957,,,
London,Station Cafe,01502c83-25c0-4aa9-ade9-868df884e227,206 New North Road  Ilford  United Kingdom,,,,51.604224,0.094866,,,
London,Putney Bakery,05f96acd-5c52-4516-ae67-abf30d3a526a,381 Upper Richmond Road  London  United Kingdom,,,,51.46443,-0.237626,,,
London,P & J Bakers,a611bab1-84f8-4811-af4d-40860f0e1d23,93 Wapping Lane  London  United Kingdom,,,,51.505266,-0.057794,,,
London,Maison Du Soleil,8cd740d4-4071-4ec4-b68a-8108cc4b4476,25 Swakeleys Road  Uxbridge  United Kingdom,,,,51.564634,-0.445253,,,
London,Kentish Canteen,66d209f9-e79d-415f-8304-a60d1278ee4c,300 Kentish Town Road  London  United Kingdom,,,,51.551108,-0.140548,,,
London,Copperfield,9a929fdf-700b-4ae1-869c-e6536a01c0f4,212 High Street  London  United Kingdom,,,,51.584588,-0.020695,,,
London,Village Delicatessen,6cddc587-47be-45b1-a5a9-b67f2a47bba1,1-3 Tranquil Vale  London  United Kingdom,,,,51.466008,0.00884,,,
London,Mandarin Chinese Take Away,16fcca78-7ba8-463e-815c-54898ac63f44,42 High Street  West Drayton  United Kingdom,,,,51.512236,-0.472432,,,
London,Baskin-Robbins & Millie's Cookies,41afdf84-b528-4ef0-96bf-009f38f14013,Bentall Centre  Wood Street  London  Kingston upon Thames  United Kingdom,,,,51.411368,-0.305116,,,
London,Spice Rack At Honeypot,899f82bc-2385-4507-ade5-4cdf5cd02955,Honeypot La  Stanmore  United Kingdom,,,,51.593445,-0.289885,,,
London,Pizza On Demand,59dc6387-e613-4a58-94d4-14b86137a62b,176 Clarence Road  London  United Kingdom,,,,51.554491,-0.055826,,,
London,The Spice Room,9e0a3674-7d88-41ed-9f1c-d3d9b1035cef,12 Kaduna Close  Pinner  United Kingdom,,,,51.586172,-0.406157,,,
London,Garam Masala,b4bc3311-c53f-4003-8d93-61fd43f78e50,144 Sydenham Road  London  United Kingdom,,,,51.425619,-0.045416,,,
London,Mr Fast Fry,29650849-64b9-4536-8a85-1dc3d160c027,103-105 Woolwich Road  London  United Kingdom,,,,51.486228,0.012718,,,
London,Taj Mahal Restaurant,5b8f3db0-baad-4b87-a622-7ab1a433b1e2,9 Petersham Road  Richmond  United Kingdom,,,,51.457528,-0.304921,,,
London,Monaf's Restaurant,debf6848-e424-472b-a04b-a4386f993dc5,119 Station Road  London  United Kingdom,,,,51.415647,-0.370004,,,
London,Crown & Sceptre,69f067a3-c252-409a-8c32-f0482034516f,34 Holland Road  London  United Kingdom,,,,51.497908,-0.207456,,,
London,Pink City,eeec58d0-9dfc-4482-94f0-e9efab7db325,39-41 Coldharbour Lane  Hayes  United Kingdom,,,,51.508299,-0.416379,,,
London,Pizza Go Go,fdd9d7d6-c17a-49c3-9848-1e8dec3ef383,86 Hamlets Way  London  United Kingdom,,,,51.523126,-0.033919,,,
London,The Scrummery,78a77122-60b1-4f41-93f4-d630903be406,105 Whitton Road  Twickenham  United Kingdom,,,,51.453458,-0.336253,,,
London,Aladdin's Restaurant,5abfd318-e002-41c3-9804-c5ca298b2d06,56 Hoppers Road  London  Winchmore Hill  United Kingdom,,,,51.625122,-0.105031,,,
London,Morello Ristorante,f3cc6a8a-d745-4516-b5ae-56271096c31b,18 High Road  London  United Kingdom,,,,51.59322,0.022563,,,
London,Starvin Marvins,2bf4e17f-83f5-4ae8-9b13-d04b9decc4a9,A40 Western Avenue  Greenford  United Kingdom,,,,51.53329,-0.324673,,,
London,Sharons,32b71a6b-294e-470e-8432-d76080c7cb68,11 Edgwarebury Lane  Town Centre  Edgware  United Kingdom,,,,51.615736,-0.276231,,,
London,Molana Llp,4a30e2a3-c83c-42fa-af4d-dd6b781ad508,78 Uxbridge Road  London  United Kingdom,,,,51.511718,-0.314835,,,
London,Blue Ginger Restaurant,e406cfed-acde-498b-8df6-9443e5f3b564,7 East Barnet Road  Barnet  United Kingdom,,,,51.650092,-0.174454,,,
London,Starbucks,48d99596-f3a8-4ca2-bc76-aaef0ee2c56a,Unit 5  45 Whitechapel Road  London  United Kingdom,,,,51.516916,-0.068053,,,
London,Ginos,a652f38f-ce77-4456-8759-e8707c1bf27a,6-8 Upper Green East  Mitcham  United Kingdom,,,,51.404834,-0.162955,,,
London,KFC,cb1726b3-3abc-4e17-a248-97f68533b1e9,14-16 Mandeville Road  Town Centre  Northolt  United Kingdom,,,,51.545061,-0.372671,,,
London,Sainsbury's,ee8139ba-7164-4876-91f7-b36de59e9539,1 Claps Gate Lane  London  United Kingdom,,,,51.521363,0.065894,,,
London,KFC,93b35cf8-579f-4544-89f7-f6d31875e8c1,A4020  London  United Kingdom,,,,51.507031,-0.27011,,,
London,Salvino,502c2b74-e94e-4118-95c4-978c76f952d0,47 Brecknock Road  London  United Kingdom,,,,51.55024,-0.130655,,,
London,Tudor Bakery,daadf9a4-b9a0-4a16-a857-ba3cf1d87b33,248 Coulsdon Road  Coulsdon  United Kingdom,,,,51.307238,-0.120576,,,
London,Caffe Nero,a8324ba0-39a2-421c-be92-c6b6fc7439e8,174-176 Fulham Road  London  United Kingdom,,,,51.486426,-0.18036,,,
London,Afters Tooting,811d71bd-ad5f-472e-81fd-59aac08108db,41-45 Upper Tooting Road  Tooting  London  United Kingdom,,,,51.43468,-0.161413,,,
London,Fantozzi,45aaeaf9-3a99-4fbf-90e7-efbc02c1b200,100-102 Chase Side  London  United Kingdom,,,,51.63344,-0.13123,,,
London,Piccolo Bar,048f9e7c-5f7a-40d2-aca8-d27932de0295,167A Putney High Street  London  United Kingdom,,,,51.461297,-0.216801,,,
London,New Balti Tandoori,1bf44cb1-2311-4ffe-af57-6f66f61e8408,22 N End Rd  London  United Kingdom,,,,51.571416,-0.193929,,,
London,Indian Zilla,0f14696b-203c-41f9-a52c-875e15d65b59,2-3 Rocks Lane  London  United Kingdom,,,,51.474933,-0.239172,,,
London,Over The Moon,71933e8c-515d-4bb5-8d80-4e3929a2f607,1A High St  Bromley  United Kingdom,,,,51.400322,0.01724,,,
London,Papa John's,9bd1d271-50dc-43a4-9374-d75b12a5872b,24 High St  Barnet  United Kingdom,,,,51.652277,-0.198111,,,
London,Picardy Cafe,997a2f85-0144-4388-9b7e-c126510490bd,5 Picardy Street  Belvedere  United Kingdom,,,,51.491407,0.151015,,,
London,China Express,4764b9a6-b182-4d7d-8565-10941d3228fb,157 Plaistow Road  London  United Kingdom,,,,51.533445,0.013326,,,
London,Blueberries,c71a4173-b443-411a-8a96-1239fc09daba,249 East Barnet Road  Barnet  United Kingdom,,,,51.642991,-0.163898,,,
London,Little Bengal Restaurant,a8706ab7-fb66-48ed-b158-ec765f797f33,45 Fulham High Street  London  United Kingdom,,,,51.470144,-0.210152,,,
London,Oakwood Palace,bf5db678-2695-4296-b63f-bf0f1c59c9ad,113-115 Bramley Road  London  United Kingdom,,,,51.647347,-0.132341,,,
London,King Curry,e396bd40-ee87-4d65-8cb9-0775ede985f6,50 Central Road  Morden  United Kingdom,,,,51.397465,-0.189731,,,
London,CFC Fried Chicken,e676057d-14da-41f2-83a0-5d489e8c22e9,25 Richmond Road  Kingston upon Thames  United Kingdom,,,,51.413686,-0.300745,,,
London,Pizza Express PLC,40017955-60f4-47c7-a950-d217d6f28a83,4 High Street  London  Sutton  United Kingdom,,,,51.360036,-0.191461,,,
London,Poppins Restaurant,9e09ed23-58bf-4868-8d30-ee0b659cd59e,68-70 High Street  Town Centre  Sutton  United Kingdom,,,,51.36178,-0.192254,,,
London,Imperial Cafe,8b90efbc-644a-4eff-9046-85d4a105c232,76 Golders Green Road  London  United Kingdom,,,,51.572906,-0.19907,,,
London,Cafe Zizou,f83371d3-2a48-4132-8500-b9d3337a6ef7,52 King Street  Town Centre  Twickenham  United Kingdom,,,,51.445673,-0.32982,,,
London,Departure,829a0e73-46a0-4771-b67a-581618278000,649-651 Commercial Road  United Kingdom,,,,51.51275,-0.038259,,,
London,Marys Supreme,ca4d310a-2a26-4c66-ab0f-e2166836e3ab,2 South St  Enfield  United Kingdom,,,,51.644052,-0.045849,,,
London,Rajah Rowing Team,d939f8dd-5522-431c-a1f5-11b7afdea892,74 Lower Richmond Rd  London  United Kingdom,,,,51.46768,-0.220905,,,
London,Sanderstead Tandoori,43ad75a0-74a9-4700-a88a-933501b5e1e0,Station Parade  Sanderstead Road  South Croydon  United Kingdom,,,,51.348262,-0.094403,,,
London,Wimpy,71c210f1-69b3-40ff-9de0-ec17c26cf638,160 Streatham High Road  London  United Kingdom,,,,51.432842,-0.128965,,,
London,Pizza Go Go,e1622c32-39ac-44fd-bcc9-0c0aa47b237f,13 Woodcock Hill  Harrow  United Kingdom,,,,51.586122,-0.306592,,,
London,Banana Tree,8fda7b7d-bfc0-4480-9bac-311325842b59,237-239 West End Lane  London  United Kingdom,,,,51.549608,-0.191643,,,
London,Eastend Tandoori,1711c056-1096-4a94-9bf9-cce90a1b42bd,138 East End Road  East Finchley  London  United Kingdom,,,,51.591931,-0.17954,,,
London,The Hill Station,275bfe50-a28b-4eaa-a936-cb6bfb0d0c1a,Kitto Road  London  United Kingdom,,,,51.467961,-0.044922,,,
London,Friendly Cafe,cae5e09e-e014-45ff-8487-b1e6f4413354,372 Oldfield Lane North  Greenford  United Kingdom,,,,51.541946,-0.346155,,,
London,Couleur Cafe,b1f4fcfd-3c63-4a82-8be1-7baa15d991db,32 Webb's Road  London  United Kingdom,,,,51.456717,-0.162969,,,
London,Creperie Du Monde,38f7121e-ccea-4159-9fa6-43833aa3d4a1,51 Chatsworth Road  London  United Kingdom,,,,51.55312,-0.044779,,,
London,Le Parc Franglais,33202488-2ab3-4f3b-9d88-3819df8510e6,94 Wickham Road  Beckenham  United Kingdom,,,,51.400604,-0.018328,,,
London,CakeCreate Bakery,635a23cf-6ee1-4b08-99b0-3a059e47c627,2 Holders Hill Road  London  United Kingdom,,,,51.601123,-0.209087,,,
London,The Actress,76155d07-4ced-454f-969e-a4580811b98b,90 Crystal Palace Road  London  East Dulwich  United Kingdom,,,,51.457483,-0.071324,,,
London,Natural Health,6b500cad-9bca-4811-822f-2803d1d46bae,339 Ballards Lane  London  United Kingdom,,,,51.613697,-0.177164,,,
London,Greggs,17182341-191f-40d1-abe8-951c70ec8538,720 High Road  North Finchley  London  United Kingdom,,,,51.613998,-0.176064,,,
London,Cêäte,5c3a7e05-2849-413a-ba46-dece5697cc97,10  The Green  High Street  London  United Kingdom,,,,51.511142,-0.305153,,,
London,Subway,097d2c57-a8b5-4e07-8185-3f05746ca4a7,180 High Street  Acton  United Kingdom,,,,51.507454,-0.271766,,,
London,Chetna's,98c1471a-6688-481f-9f6c-43e3ee489ed3,429 Kingsbury Road  London  United Kingdom,,,,51.585678,-0.27502,,,
London,The Pie Crust,2290d8bd-ed91-477a-a359-af65b5171393,273 High Street  London  United Kingdom,,,,51.536363,-0.003863,,,
London,Tong Kanom,08ce8c13-56f3-4fbd-a550-480bf970f6d4,833 Harrow Road  London  United Kingdom,,,,51.532585,-0.234396,,,
London,Mayflower,2a4c932a-f715-45c3-a5b1-4762abd4ce96,88 High Street  London  United Kingdom,,,,51.398327,-0.076321,,,
London,Jade Cottage,4b7f7e87-36e1-4ce4-9667-c82a04c671a9,244-246 Hendon Way  London  United Kingdom,,,,51.582146,-0.226738,,,
London,Zaga,68142b68-588f-4d42-8df5-522e5493c655,125 Northwold Road  London  United Kingdom,,,,51.562873,-0.063214,,,
London,Toast,d3d72f56-a730-4461-a777-ea8eec1a29ae,112  Wandsworth High Street  London  United Kingdom,,,,51.457436,-0.196421,,,
London,Londis,57345fc8-6cd1-4581-8b40-09f7aff5525d,406-408 Ealing Road  Wembley  United Kingdom,,,,51.536911,-0.298808,,,
London,Cafe Cascais,ecf10ee7-03ee-48ec-baf6-ab38665d6e13,104 Cann Hall Road  London  United Kingdom,,,,51.555038,0.009945,,,
London,El Olivo,36e589d7-b074-448d-b938-05204a17f7bc,24 Stoke Newington Church Street  London  United Kingdom,,,,51.562166,-0.074856,,,
London,Maison St Cassien,0b322038-fa4e-43c6-ad9f-cc66b08ce57c,71 High Street Wimbledon  London  United Kingdom,,,,51.42556,-0.218557,,,
London,KFC,fdf2490c-1f58-4f15-98f5-c8520a666b69,131-135 High Street  Town Centre  New Malden  United Kingdom,,,,51.39955,-0.255737,,,
London,Plum Tree Cafe,9ce5254c-ef15-486c-ac45-db87ceec5fe0,241  Greenwich High Road  London  United Kingdom,,,,51.47876,-0.010954,,,
London,Spice Village,5d5ef897-58bc-4c6f-8688-d4da82771920,185-189 The Broadway  Southall  United Kingdom,,,,51.512347,-0.3849,,,
London,Anna's Thai Restaurant,3006071b-bf56-4e88-9ec1-ddab9e50e486,235-241 High Street  East Croydon  Croydon  United Kingdom,,,,51.36951,-0.098974,,,
London,Don Pietro,87d1d5f1-1d6f-49c7-903a-bbef821de5e8,448-450 Cranbrook Road  Ilford  United Kingdom,,,,51.576946,0.067894,,,
London,Onur Kebab House,ed202126-3a95-47a2-a6e8-d9ac47800a3f,139 High Street  Ilford  United Kingdom,,,,51.592347,0.083683,,,
London,Lots Of Rice,c5373428-21de-4d86-978a-6dea6420ce45,759 Uxbridge Road  Hayes  United Kingdom,,,,51.525351,-0.435589,,,
London,Pizza Express,06152a69-e0e8-43b0-8f1d-bde066d56241,136-140 Herne Hill  London  United Kingdom,,,,51.452946,-0.101176,,,
London,Poplar Cafe,554e4a2a-f179-4b41-b4bb-a4523f032889,253 Poplar High Street  London  United Kingdom,,,,51.508876,-0.009989,,,
London,Subway Leytonstone,d974abf9-757e-4027-8738-4dd7132d2f89,19 Church Ln  Leytonstone  United Kingdom,,,,51.56829,0.009065,,,
London,Olive Tree,fddfc89d-4659-4760-afce-abe2d1bd812e,21 High Street  Bromley  United Kingdom,,,,51.400901,0.016973,,,
London,iL Vero Gusto,5c1ef497-a40c-419e-830a-c74aa5430788,376 Richmond Road  Richmond  United Kingdom,,,,51.455364,-0.310556,,,
London,Toby Carvery Woodford,f2fa66b7-0114-40e9-97d4-77a3c8b94d00,1 Southend Road  Ilford  United Kingdom,,,,51.591275,0.047303,,,
London,OH My Cod,074951b4-a49b-4fe4-ba83-211756f29e0d,96 North Street  Town Centre  Hornchurch  United Kingdom,,,,51.56691,0.220215,,,
London,Hansel & Pretzel German Delicatessen,ba4844e0-92a6-4b5f-8c50-717c6a4d8d57,71 Ham Street  Richmond  United Kingdom,,,,51.438508,-0.313534,,,
London,The Cuckoo,106505cd-e264-4c3d-a84c-7ffb0cf2fa02,85 Greenford Avenue  London  United Kingdom,,,,51.515069,-0.337235,,,
London,Hounslow Kebab,8b28a6af-eaac-4ce8-9793-f15345e3961e,2 Bell Parade Bell Road  Hounslow  London  United Kingdom,,,,51.466438,-0.365086,,,
London,Burger King,e1387a6d-1087-4978-9a85-b2efe339c153,25 Chequers Square  Town Centre  Uxbridge  United Kingdom,,,,51.547139,-0.481949,,,
London,Lillyman's Pantry,94ecf2c5-2c2d-4ef4-969c-4c35c5cbdd5d,479 London Road  Isleworth  United Kingdom,,,,51.475054,-0.337971,,,
London,KFC,6012c836-d0df-40a7-9d73-2b3cba8c9712,154 High Road  East Finchley  London  United Kingdom,,,,51.591439,-0.165118,,,
London,Brothers Kebab House,a4ccc74a-f0e6-4f56-ac22-d31c3679e860,207 Lower Addiscombe Road  Croydon  United Kingdom,,,,51.379766,-0.074379,,,
London,Kingfish,0cd41425-186d-4d71-8c31-4ac6567fbcd3,1 The Triangle  Kingston upon Thames  United Kingdom,,,,51.408378,-0.273908,,,
London,A & N Brothers Cafe,582986b5-86d8-426c-98ac-a78282fe9eae,Flat 6  Ruskin House  Selsdon Road  South Croydon  United Kingdom,,,,51.362934,-0.096936,,,
London,Casbah Coffee & Bakehouse,1557b0fb-b760-4a8d-9de2-3b61b758044e,186 Garratt Lane  London  United Kingdom,,,,51.448431,-0.189663,,,
London,bake-a-boo,f28f5be2-996d-4000-9327-8ac8fca73f54,86 Mill Lane  United Kingdom,,,,51.551443,-0.199381,,,
London,Gourmet Burger Kitchen,024afd95-4c36-46f3-add5-55caf89ce795,22 Peninsula Square  London  United Kingdom,,,,51.503346,0.004472,,,
London,Empress,b670166c-f085-4731-853e-5e1f5f7a46eb,79 High Road  London  United Kingdom,,,,51.594423,0.022118,,,
